{
  "1st_call_plumbing": {
    "name": "1st Call Plumbing",
    "phone": "+1 870-919-3036",
    "fullAddress": "",
    "street": "",
    "city": "",
    "postalCode": "",
    "state": "",
    "country": "US",
    "latitude": 35.9839799999999,
    "longitude": -90.6135896,
    "timeZone": "America/Chicago",
    "rating": 8,
    "reviews": "https://search.google.com/local/reviews?placeid=ChIJ6zFoxcp9tSIR9Ibz-IG-wQg&q=plumber,+72412,+Beech+Grove,+AR,+US&authuser=0&hl=en&gl=US",
    "reviewsLink": "",
    "workingHours": "Monday:Open 24 hours|Tuesday:Open 24 hours|Wednesday:Open 24 hours|Thursday:Open 24 hours|Friday:Open 24 hours|Saturday:Open 24 hours|Sunday:Open 24 hours",
    "locationLink": "630994888245348084"
  },
  "johnny_thomas_plumbing": {
    "name": "Johnny Thomas Plumbing",
    "phone": "+1 501-276-4225",
    "fullAddress": "",
    "street": "",
    "city": "",
    "postalCode": "",
    "state": "",
    "country": "US",
    "latitude": 36.1056242,
    "longitude": -90.7795708,
    "timeZone": "America/Chicago",
    "rating": 23,
    "reviews": "https://search.google.com/local/reviews?placeid=ChIJJUc7qlIm1IcRx-cCCiI_yP0&q=plumber,+72412,+Beech+Grove,+AR,+US&authuser=0&hl=en&gl=US",
    "reviewsLink": "",
    "workingHours": "Monday:7AM-3:30PM|Tuesday:7AM-3:30PM|Wednesday:7AM-3:30PM|Thursday:7AM-3:30PM|Friday:7AM-3:30PM|Saturday:Closed|Sunday:Closed",
    "locationLink": "18286935702367299527"
  },
  "barkley_plumbing_and_septic": {
    "name": "Barkley Plumbing and Septic",
    "phone": "+1 870-926-1296",
    "fullAddress": "",
    "street": "",
    "city": "",
    "postalCode": "",
    "state": "",
    "country": "US",
    "latitude": 35.9685639,
    "longitude": -90.7987036,
    "timeZone": "America/Chicago",
    "rating": 8,
    "reviews": "https://search.google.com/local/reviews?placeid=ChIJvyeTdRotvG8RkmIklJ97REQ&q=plumber,+72412,+Beech+Grove,+AR,+US&authuser=0&hl=en&gl=US",
    "reviewsLink": "",
    "workingHours": "Monday:Open 24 hours|Tuesday:Open 24 hours|Wednesday:Open 24 hours|Thursday:Open 24 hours|Friday:Open 24 hours|Saturday:Open 24 hours|Sunday:Open 24 hours",
    "locationLink": "4919192618310853266"
  },
  "boyd_s_plumbing": {
    "name": "Boyd?s Plumbing",
    "phone": "",
    "fullAddress": "802 SW Broad St, Hoxie, AR 72433",
    "street": "802 SW Broad St",
    "city": "Hoxie",
    "postalCode": 72433,
    "state": "Arkansas",
    "country": "United States of America",
    "latitude": 36.0466386999999,
    "longitude": -90.9792629999999,
    "timeZone": "America/Chicago",
    "rating": 18,
    "reviews": "https://search.google.com/local/reviews?placeid=ChIJdyNofmuj1ocR6pZY7BTGrrk&q=plumber,+72412,+Beech+Grove,+AR,+US&authuser=0&hl=en&gl=US",
    "reviewsLink": "",
    "workingHours": "Monday:8AM-5PM|Tuesday:8AM-5PM|Wednesday:8AM-5PM|Thursday:8AM-5PM|Friday:8AM-5PM|Saturday:8AM-12PM|Sunday:Closed",
    "locationLink": "13379849336131196650"
  },
  "hyde_plumbing_llc": {
    "name": "HYDE Plumbing LLC",
    "phone": "+1 870-476-7178",
    "fullAddress": "2200 N 12th Ave, Paragould, AR 72450",
    "street": "2200 N 12th Ave",
    "city": "Paragould",
    "postalCode": 72450,
    "state": "Arkansas",
    "country": "United States of America",
    "latitude": 36.0841768999999,
    "longitude": -90.470022,
    "timeZone": "America/Chicago",
    "rating": 11,
    "reviews": "https://search.google.com/local/reviews?placeid=ChIJMf93KlNl1ocRreq5dUr-e0s&q=plumber,+72412,+Beech+Grove,+AR,+US&authuser=0&hl=en&gl=US",
    "reviewsLink": "",
    "workingHours": "Monday:8AM-4PM|Tuesday:8AM-4PM|Wednesday:8AM-4PM|Thursday:8AM-4PM|Friday:8AM-4PM|Saturday:Closed|Sunday:Closed",
    "locationLink": "5439220570736159405"
  },
  "wyatt_brothers_plumbing_remodel": {
    "name": "Wyatt Brothers Plumbing & Remodel",
    "phone": "+1 870-393-6786",
    "fullAddress": "1816 Countryside Ln, Paragould, AR 72450",
    "street": "1816 Countryside Ln",
    "city": "Paragould",
    "postalCode": 72450,
    "state": "Arkansas",
    "country": "United States of America",
    "latitude": 36.053024,
    "longitude": -90.510813,
    "timeZone": "America/Chicago",
    "rating": 51,
    "reviews": "https://search.google.com/local/reviews?placeid=ChIJnY_TM3J71ocRZtnhY8PNkiE&q=plumber,+72412,+Beech+Grove,+AR,+US&authuser=0&hl=en&gl=US",
    "reviewsLink": "",
    "workingHours": "Monday:8AM-5PM|Tuesday:8AM-5PM|Wednesday:8AM-5PM|Thursday:8AM-5PM|Friday:8AM-5PM|Saturday:8AM-5PM|Sunday:8AM-5PM",
    "locationLink": "2419222188929440102"
  },
  "superior_plumbing": {
    "name": "Superior Plumbing",
    "phone": "+1 870-206-7809",
    "fullAddress": "3008 Riggs St Ste A, Jonesboro, AR 72401",
    "street": "3008 Riggs St Ste A",
    "city": "Jonesboro",
    "postalCode": 72401,
    "state": "Arkansas",
    "country": "United States of America",
    "latitude": 35.8272974,
    "longitude": -90.6685871,
    "timeZone": "America/Chicago",
    "rating": 7,
    "reviews": "https://search.google.com/local/reviews?placeid=ChIJ583lFvgr1IcR9RH9RZkUnxg&q=plumber,+72412,+Beech+Grove,+AR,+US&authuser=0&hl=en&gl=US",
    "reviewsLink": "",
    "workingHours": "Monday:8AM-4PM|Tuesday:8AM-4PM|Wednesday:8AM-4AM|Thursday:8AM-4AM|Friday:8AM-4AM|Saturday:Closed|Sunday:Closed",
    "locationLink": "1774159426744029685"
  },
  "mid_south_heat_air": {
    "name": "Mid-South Heat & Air",
    "phone": "+1 870-450-0777",
    "fullAddress": "6801 W Kingshighway, Paragould, AR 72450",
    "street": "6801 W Kingshighway",
    "city": "Paragould",
    "postalCode": 72450,
    "state": "Arkansas",
    "country": "United States of America",
    "latitude": 36.0679324,
    "longitude": -90.576413,
    "timeZone": "America/Chicago",
    "rating": 44,
    "reviews": "https://search.google.com/local/reviews?placeid=ChIJB-SmCwN91ocRDZkEqljH12c&q=plumber,+72412,+Beech+Grove,+AR,+US&authuser=0&hl=en&gl=US",
    "reviewsLink": "",
    "workingHours": "Monday:7AM-5:30PM|Tuesday:7AM-5:30PM|Wednesday:7AM-5:30PM|Thursday:7AM-5:30PM|Friday:7AM-5:30PM|Saturday:9AM-4PM|Sunday:12-4PM",
    "locationLink": "7482668489522845965"
  },
  "all_in_one_services": {
    "name": "All In One Services",
    "phone": "+1 870-810-7688",
    "fullAddress": "613 W Marr St, Pocahontas, AR 72455",
    "street": "613 W Marr St",
    "city": "Pocahontas",
    "postalCode": 72455,
    "state": "Arkansas",
    "country": "United States of America",
    "latitude": 36.2579875,
    "longitude": -90.9754052999999,
    "timeZone": "America/Chicago",
    "rating": 9,
    "reviews": "https://search.google.com/local/reviews?placeid=ChIJjy8EKfM7X6cRjVVNorsmQT0&q=plumber,+72413,+Biggers,+AR,+US&authuser=0&hl=en&gl=US",
    "reviewsLink": "",
    "workingHours": "Monday:8AM-5PM|Tuesday:8AM-5PM|Wednesday:8AM-5PM|Thursday:8AM-5PM|Friday:8AM-5PM|Saturday:Closed|Sunday:Closed",
    "locationLink": "4413851697123513741"
  },
  "david_s_fast_emergency_plumbing": {
    "name": "David's Fast Emergency Plumbing",
    "phone": "+1 870-931-1119",
    "fullAddress": "1701 N Patrick St, Jonesboro, AR 72401",
    "street": "1701 N Patrick St",
    "city": "Jonesboro",
    "postalCode": 72401,
    "state": "Arkansas",
    "country": "United States of America",
    "latitude": 35.8650042999999,
    "longitude": -90.6947118,
    "timeZone": "America/Chicago",
    "rating": 7,
    "reviews": "https://search.google.com/local/reviews?placeid=ChIJ9X0jk3Qp1IcRju91jJIuetQ&q=plumber,+72413,+Biggers,+AR,+US&authuser=0&hl=en&gl=US",
    "reviewsLink": "",
    "workingHours": "",
    "locationLink": "15310601090156064654"
  },
  "bricoleur_maintenance_repair_llc": {
    "name": "Bricoleur Maintenance & Repair LLC",
    "phone": "+1 870-809-9535",
    "fullAddress": "",
    "street": "",
    "city": "",
    "postalCode": "",
    "state": "",
    "country": "US",
    "latitude": 36.2007037,
    "longitude": -90.5586342,
    "timeZone": "America/Chicago",
    "rating": 9,
    "reviews": "https://search.google.com/local/reviews?placeid=ChIJRYEyeFD-3CgRuU12zJNPrRY&q=plumber,+72413,+Biggers,+AR,+US&authuser=0&hl=en&gl=US",
    "reviewsLink": "",
    "workingHours": "Monday:Open 24 hours|Tuesday:Open 24 hours|Wednesday:Open 24 hours|Thursday:Open 24 hours|Friday:Open 24 hours|Saturday:Open 24 hours|Sunday:Closed",
    "locationLink": "1634049736014450105"
  },
  "unity_enterprises_of_northeast_arkansas": {
    "name": "Unity Enterprises of Northeast Arkansas",
    "phone": "+1 870-844-4000",
    "fullAddress": "115 Co Rd 345, Jonesboro, AR 72401",
    "street": "115 Co Rd 345",
    "city": "Jonesboro",
    "postalCode": 72401,
    "state": "Arkansas",
    "country": "United States of America",
    "latitude": 35.9004411,
    "longitude": -90.7441102,
    "timeZone": "America/Chicago",
    "rating": 5,
    "reviews": "https://search.google.com/local/reviews?placeid=ChIJi4da6Vwp1IcR0bX5offer6g&q=plumber,+72417,+Brookland,+AR,+US&authuser=0&hl=en&gl=US",
    "reviewsLink": "",
    "workingHours": "",
    "locationLink": "12155179074452043217"
  },
  "drainpro_professional_services": {
    "name": "DrainPro Professional Services",
    "phone": "+1 870-318-0975",
    "fullAddress": "531 W Main St, Trumann, AR 72472",
    "street": "531 W Main St",
    "city": "Trumann",
    "postalCode": 72472,
    "state": "Arkansas",
    "country": "United States of America",
    "latitude": 35.6716903999999,
    "longitude": -90.5144277999999,
    "timeZone": "America/Chicago",
    "rating": 99,
    "reviews": "https://search.google.com/local/reviews?placeid=ChIJ86k1UoPO1YcRfh3x4zkV1eo&q=plumber,+72419,+Caraway,+AR,+US&authuser=0&hl=en&gl=US",
    "reviewsLink": "",
    "workingHours": "Monday:Open 24 hours|Tuesday:Open 24 hours|Wednesday:Open 24 hours|Thursday:Open 24 hours|Friday:Open 24 hours|Saturday:Open 24 hours|Sunday:Open 24 hours",
    "locationLink": "16921454513296055678"
  },
  "b_b_repair_appliance_parts_sales_and_service": {
    "name": "B&B Repair Appliance parts, sales and service",
    "phone": "+1 870-955-4419",
    "fullAddress": "434 Lawrence Rd 410, Walnut Ridge, AR 72476",
    "street": "434 Lawrence Rd 410",
    "city": "Walnut Ridge",
    "postalCode": 72476,
    "state": "Arkansas",
    "country": "United States of America",
    "latitude": 36.1197067,
    "longitude": -90.9974661,
    "timeZone": "America/Chicago",
    "rating": 12,
    "reviews": "https://search.google.com/local/reviews?placeid=ChIJIawW7VXH1ocR1UrE4k0sKJI&q=plumber,+72425,+Delaplaine,+AR,+US&authuser=0&hl=en&gl=US",
    "reviewsLink": "",
    "workingHours": "Monday:9AM-5:30AM|Tuesday:9AM-5:30AM|Wednesday:9AM-5:30AM|Thursday:9AM-5:30AM|Friday:9AM-5:30AM|Saturday:Closed|Sunday:Closed",
    "locationLink": "10531716441634523861"
  },
  "wood_s_plumbing": {
    "name": "Wood's Plumbing",
    "phone": "+1 870-856-2303",
    "fullAddress": "25 Big Creek Ln, Highland, AR 72542",
    "street": "25 Big Creek Ln",
    "city": "Highland",
    "postalCode": 72542,
    "state": "Arkansas",
    "country": "United States of America",
    "latitude": 36.2577997,
    "longitude": -91.5479637999999,
    "timeZone": "America/Chicago",
    "rating": 36,
    "reviews": "https://search.google.com/local/reviews?placeid=ChIJ52TyKjIV0YcRpPBeL2XcClQ&q=plumber,+72425,+Delaplaine,+AR,+US&authuser=0&hl=en&gl=US",
    "reviewsLink": "",
    "workingHours": "Monday:8AM-5PM|Tuesday:8AM-5PM|Wednesday:8AM-5PM|Thursday:8AM-5PM|Friday:8AM-5PM|Saturday:Closed|Sunday:Closed",
    "locationLink": "6055894976097611940"
  },
  "d_k_son_construction_and_remodeling_llc": {
    "name": "D K & Son Construction and Remodeling LLC",
    "phone": "+1 573-712-4997",
    "fullAddress": "",
    "street": "",
    "city": "",
    "postalCode": "",
    "state": "",
    "country": "US",
    "latitude": 36.6579799999999,
    "longitude": -90.6603959999999,
    "timeZone": "America/Chicago",
    "rating": 6,
    "reviews": "https://search.google.com/local/reviews?placeid=ChIJLQAKB4Y2W2kRi6ItupM9LCA&q=plumber,+72425,+Delaplaine,+AR,+US&authuser=0&hl=en&gl=US",
    "reviewsLink": "",
    "workingHours": "Monday:9AM-5PM|Tuesday:9AM-5PM|Wednesday:9AM-5PM|Thursday:9AM-5PM|Friday:9AM-5PM|Saturday:Closed|Sunday:Closed",
    "locationLink": "2318295612882002571"
  },
  "mickey_s_plumbing_inc": {
    "name": "Mickey's Plumbing Inc",
    "phone": "+1 501-796-2048",
    "fullAddress": "125 Fredricks Lick Rd, Mt Vernon, AR 72111",
    "street": "125 Fredricks Lick Rd",
    "city": "Mt Vernon",
    "postalCode": 72111,
    "state": "Arkansas",
    "country": "United States of America",
    "latitude": 35.2469441,
    "longitude": -92.1683796,
    "timeZone": "America/Chicago",
    "rating": 11,
    "reviews": "https://search.google.com/local/reviews?placeid=ChIJrSKJIaSP0ocRYJ7_pMyGr_A&q=plumber,+72429,+Fisher,+AR,+US&authuser=0&hl=en&gl=US",
    "reviewsLink": "",
    "workingHours": "",
    "locationLink": "17343228903526735456"
  },
  "harris_plumbing": {
    "name": "Harris Plumbing",
    "phone": "+1 870-318-6935",
    "fullAddress": "2329 W Union Ave, Wynne, AR 72396",
    "street": "2329 W Union Ave",
    "city": "Wynne",
    "postalCode": 72396,
    "state": "Arkansas",
    "country": "United States of America",
    "latitude": 35.2235079,
    "longitude": -90.8270782,
    "timeZone": "America/Chicago",
    "rating": 18,
    "reviews": "https://search.google.com/local/reviews?placeid=ChIJtwAIRs9Z1IcRXNsh3UrjUO8&q=plumber,+72429,+Fisher,+AR,+US&authuser=0&hl=en&gl=US",
    "reviewsLink": "",
    "workingHours": "Monday:8AM-5PM|Tuesday:8AM-5PM|Wednesday:8AM-5PM|Thursday:8AM-5PM|Friday:8AM-5PM|Saturday:Closed|Sunday:Closed",
    "locationLink": "17244532883878697820"
  },
  "larry_s_plumbing_and_mitchell_s_construction": {
    "name": "Larry's Plumbing and Mitchell?s Construction",
    "phone": "+1 573-888-5969",
    "fullAddress": "",
    "street": "",
    "city": "",
    "postalCode": "",
    "state": "",
    "country": "US",
    "latitude": 36.242052,
    "longitude": -90.04991,
    "timeZone": "America/Chicago",
    "rating": 19,
    "reviews": "https://search.google.com/local/reviews?placeid=ChIJCTK1eVof1ocR4bXheNQUGlQ&q=plumber,+72430,+Greenway,+AR,+US&authuser=0&hl=en&gl=US",
    "reviewsLink": "",
    "workingHours": "Monday:8AM-6PM|Tuesday:8AM-6PM|Wednesday:8AM-6PM|Thursday:8AM-6PM|Friday:8AM-6PM|Saturday:Closed|Sunday:Closed",
    "locationLink": "6060179151374104033"
  },
  "precision_plumbing_services": {
    "name": "Precision Plumbing Services",
    "phone": "+1 870-698-1734",
    "fullAddress": "415 US-167, Cave City, AR 72521",
    "street": "415 US-167",
    "city": "Cave City",
    "postalCode": 72521,
    "state": "Arkansas",
    "country": "United States of America",
    "latitude": 35.9665957,
    "longitude": -91.5531594,
    "timeZone": "America/Chicago",
    "rating": 20,
    "reviews": "https://search.google.com/local/reviews?placeid=ChIJJ6ZGlBVh0YcRMEGUGmzz-tg&q=plumber,+72431,+Grubbs,+AR,+US&authuser=0&hl=en&gl=US",
    "reviewsLink": "",
    "workingHours": "Monday:Open 24 hours|Tuesday:Open 24 hours|Wednesday:Open 24 hours|Thursday:Open 24 hours|Friday:Open 24 hours|Saturday:Open 24 hours|Sunday:Open 24 hours",
    "locationLink": "15635076701998039344"
  },
  "mike_the_plumber": {
    "name": "Mike The Plumber",
    "phone": "+1 870-321-4298",
    "fullAddress": "Alta Vista Dr, Bull Shoals, AR 72619",
    "street": "Alta Vista Dr",
    "city": "Bull Shoals",
    "postalCode": 72619,
    "state": "Arkansas",
    "country": "United States of America",
    "latitude": 36.3753109999999,
    "longitude": -92.6052,
    "timeZone": "America/Chicago",
    "rating": 10,
    "reviews": "https://search.google.com/local/reviews?placeid=ChIJ82Ep3z8nq6YRbhwClcPYwMA&q=*&authuser=0&hl=en&gl=US",
    "reviewsLink": "",
    "workingHours": "Monday:7:30AM-7PM|Tuesday:7:30AM-7PM|Wednesday:7:30AM-7PM|Thursday:7:30AM-7PM|Friday:7:30AM-5PM|Saturday:7AM-5PM|Sunday:Closed",
    "locationLink": "13889339585340775534"
  },
  "manila_pro_hardware": {
    "name": "Manila Pro Hardware",
    "phone": "+1 870-561-3730",
    "fullAddress": "219 Baltimore Ave, Manila, AR 72442",
    "street": "219 Baltimore Ave",
    "city": "Manila",
    "postalCode": 72442,
    "state": "Arkansas",
    "country": "United States of America",
    "latitude": 35.880078,
    "longitude": -90.1664021,
    "timeZone": "America/Chicago",
    "rating": 63,
    "reviews": "https://search.google.com/local/reviews?placeid=ChIJa_tMzN3i1YcRt4Qh2IUn-hQ&q=plumber,+72442,+Manila,+AR,+US&authuser=0&hl=en&gl=US",
    "reviewsLink": "",
    "workingHours": "Monday:8AM-5PM|Tuesday:8AM-5PM|Wednesday:8AM-5PM|Thursday:8AM-5PM|Friday:8AM-5PM|Saturday:8AM-12PM|Sunday:Closed",
    "locationLink": "1511564080746431671"
  },
  "jp_s_plumbing_llc": {
    "name": "JP's Plumbing LLC",
    "phone": "+1 501-259-9908",
    "fullAddress": "Woodbridge Dr, Cabot, AR 72023",
    "street": "Woodbridge Dr",
    "city": "Cabot",
    "postalCode": 72023,
    "state": "Arkansas",
    "country": "United States of America",
    "latitude": 34.9595057,
    "longitude": -91.9921767,
    "timeZone": "America/Chicago",
    "rating": 16,
    "reviews": "https://search.google.com/local/reviews?placeid=ChIJXWV4VEXv0ocR_8n1NKHfJFU&q=plumber,+72453,+Peach+Orchard,+AR,+US&authuser=0&hl=en&gl=US",
    "reviewsLink": "",
    "workingHours": "Monday:Open 24 hours|Tuesday:Open 24 hours|Wednesday:Open 24 hours|Thursday:Open 24 hours|Friday:Open 24 hours|Saturday:Open 24 hours|Sunday:Open 24 hours",
    "locationLink": "6135274475856710143"
  },
  "j_dodson_plumbing": {
    "name": "J Dodson Plumbing",
    "phone": "+1 501-909-2540",
    "fullAddress": "7415 Mars Hill Rd, Bauxite, AR 72011",
    "street": "7415 Mars Hill Rd",
    "city": "Bauxite",
    "postalCode": 72011,
    "state": "Arkansas",
    "country": "United States of America",
    "latitude": 34.4989409999999,
    "longitude": -92.503152,
    "timeZone": "America/Chicago",
    "rating": 35,
    "reviews": "https://search.google.com/local/reviews?placeid=ChIJv2MMMNlUzYcRMfKtJcqV2fI&q=plumber,+72456,+Pollard,+AR,+US&authuser=0&hl=en&gl=US",
    "reviewsLink": "",
    "workingHours": "",
    "locationLink": "17499182522572862001"
  },
  "a_state_plumbing_llc": {
    "name": "A State Plumbing LLC",
    "phone": "+1 501-286-9795",
    "fullAddress": "705 2nd St, Ward, AR 72176",
    "street": "705 2nd St",
    "city": "Ward",
    "postalCode": 72176,
    "state": "Arkansas",
    "country": "United States of America",
    "latitude": 35.0361988999999,
    "longitude": -91.9452027999999,
    "timeZone": "America/Chicago",
    "rating": 20,
    "reviews": "https://search.google.com/local/reviews?placeid=ChIJMzMR5v770ocRH73Tz3HiFYo&q=*&authuser=0&hl=en&gl=US",
    "reviewsLink": "",
    "workingHours": "Monday:8AM-4:30PM|Tuesday:8AM-4:30PM|Wednesday:8AM-4:30PM|Thursday:8AM-4:30PM|Friday:8AM-4:30PM|Saturday:Closed|Sunday:Closed",
    "locationLink": "9950107930190920991"
  },
  "j_c_drain_cleaning": {
    "name": "J & C Drain Cleaning",
    "phone": "+1 870-204-3582",
    "fullAddress": "",
    "street": "",
    "city": "",
    "postalCode": "",
    "state": "",
    "country": "US",
    "latitude": 33.4706093,
    "longitude": -92.7141508,
    "timeZone": "America/Chicago",
    "rating": 10,
    "reviews": "https://search.google.com/local/reviews?placeid=ChIJEezfJgg_MoYRhbvlBBTDbiw&q=plumber,+71740,+Emerson,+AR,+US&authuser=0&hl=en&gl=US",
    "reviewsLink": "",
    "workingHours": "Monday:Open 24 hours|Tuesday:Open 24 hours|Wednesday:Open 24 hours|Thursday:Open 24 hours|Friday:Open 24 hours|Saturday:Open 24 hours|Sunday:Open 24 hours",
    "locationLink": "3201710875855928197"
  },
  "s_s_plumbing_inc": {
    "name": "S & S Plumbing Inc",
    "phone": "+1 501-767-6100",
    "fullAddress": "3020 Airport Rd, Pearcy, AR 71964",
    "street": "3020 Airport Rd",
    "city": "Pearcy",
    "postalCode": 71964,
    "state": "Arkansas",
    "country": "United States of America",
    "latitude": 33.2765531999999,
    "longitude": -93.24318,
    "timeZone": "America/Chicago",
    "rating": 35,
    "reviews": "https://search.google.com/local/reviews?placeid=ChIJ6aqqEL4sM4YRjQa9HqC33BY&q=plumber,+71740,+Emerson,+AR,+US&authuser=0&hl=en&gl=US",
    "reviewsLink": "",
    "workingHours": "Monday:8AM-4PM|Tuesday:8AM-4PM|Wednesday:8AM-4PM|Thursday:8AM-4PM|Friday:8AM-4PM|Saturday:Closed|Sunday:Closed",
    "locationLink": "1647393462049113741"
  },
  "casco_plumbing": {
    "name": "CASCo Plumbing",
    "phone": "+1 870-312-6094",
    "fullAddress": "7758 Calhoun 13, Hampton, AR 71744",
    "street": "7758 Calhoun 13",
    "city": "Hampton",
    "postalCode": 71744,
    "state": "Arkansas",
    "country": "United States of America",
    "latitude": 33.5420152,
    "longitude": -92.5838321999999,
    "timeZone": "America/Chicago",
    "rating": 6,
    "reviews": "https://search.google.com/local/reviews?placeid=ChIJf896jKtxMoYR_f3QBtorbqA&q=plumber,+71744,+Hampton,+AR,+US&authuser=0&hl=en&gl=US",
    "reviewsLink": "",
    "workingHours": "Monday:Open 24 hours|Tuesday:Open 24 hours|Wednesday:Open 24 hours|Thursday:Open 24 hours|Friday:Open 24 hours|Saturday:Open 24 hours|Sunday:Open 24 hours",
    "locationLink": "11560225508923866621"
  },
  "crabtree_plumbing": {
    "name": "Crabtree Plumbing",
    "phone": "+1 870-557-2606",
    "fullAddress": "",
    "street": "",
    "city": "",
    "postalCode": "",
    "state": "",
    "country": "US",
    "latitude": 34.7520156,
    "longitude": -92.1294279999999,
    "timeZone": "America/Chicago",
    "rating": 7,
    "reviews": "https://search.google.com/local/reviews?placeid=ChIJ97NraeNgM4YRMjcopSkIr4s&q=*&authuser=0&hl=en&gl=US",
    "reviewsLink": "",
    "workingHours": "Monday:Open 24 hours|Tuesday:Open 24 hours|Wednesday:Open 24 hours|Thursday:Open 24 hours|Friday:Open 24 hours|Saturday:Open 24 hours|Sunday:Open 24 hours",
    "locationLink": "10065272667153905458"
  },
  "southern_quality_home_inspections_llc": {
    "name": "Southern Quality Home Inspections LLC",
    "phone": "+1 870-212-8372",
    "fullAddress": "",
    "street": "",
    "city": "",
    "postalCode": "",
    "state": "",
    "country": "US",
    "latitude": 34.7520156,
    "longitude": -92.1294279999999,
    "timeZone": "America/Chicago",
    "rating": 10,
    "reviews": "https://search.google.com/local/reviews?placeid=ChIJQaXjGj2lJwQR6dRJhq0D3Z4&q=plumber,+71758,+Mount+Holly,+AR,+US&authuser=0&hl=en&gl=US",
    "reviewsLink": "",
    "workingHours": "Monday:8AM-9PM|Tuesday:8AM-9PM|Wednesday:8AM-9PM|Thursday:8AM-9PM|Friday:8AM-9PM|Saturday:8AM-9PM|Sunday:Closed",
    "locationLink": "11447309871662879977"
  },
  "good_vibes_plumbing": {
    "name": "Good Vibes Plumbing",
    "phone": "+1 870-582-2944",
    "fullAddress": "301 Heritage Pl, De Queen, AR 71832",
    "street": "301 Heritage Pl",
    "city": "De Queen",
    "postalCode": 71832,
    "state": "Arkansas",
    "country": "United States of America",
    "latitude": 34.0434512,
    "longitude": -94.3567095,
    "timeZone": "America/Chicago",
    "rating": 46,
    "reviews": "https://search.google.com/local/reviews?placeid=ChIJB5Cw0V7hNIYRuKSStEPkGl8&q=plumber,+71820,+Alleene,+AR,+US&authuser=0&hl=en&gl=US",
    "reviewsLink": "",
    "workingHours": "Monday:8AM-5PM|Tuesday:8AM-5PM|Wednesday:8AM-5PM|Thursday:8AM-5PM|Friday:8AM-5PM|Saturday:Closed|Sunday:Closed",
    "locationLink": "6853040762441082040"
  },
  "gauldin_septic_tank_service": {
    "name": "Gauldin Septic Tank Service",
    "phone": "+1 870-542-6355",
    "fullAddress": "916 Schuman St, Foreman, AR 71836",
    "street": "916 Schuman St",
    "city": "Foreman",
    "postalCode": 71836,
    "state": "Arkansas",
    "country": "United States of America",
    "latitude": 33.7300429,
    "longitude": -94.3964299,
    "timeZone": "America/Chicago",
    "rating": 9,
    "reviews": "https://search.google.com/local/reviews?placeid=ChIJOSyxHVVVNIYRNrB757rLA3M&q=plumber,+71820,+Alleene,+AR,+US&authuser=0&hl=en&gl=US",
    "reviewsLink": "",
    "workingHours": "Monday:8AM-4:30PM|Tuesday:8AM-4:30PM|Wednesday:8AM-4:30PM|Thursday:8AM-4:30PM|Friday:8AM-4:30PM|Saturday:Closed|Sunday:Closed",
    "locationLink": "8287691742899843126"
  },
  "evenflow_plumbing": {
    "name": "Evenflow Plumbing",
    "phone": "+1 870-571-3186",
    "fullAddress": "Tennessee Rd, Texarkana, AR 71854",
    "street": "Tennessee Rd",
    "city": "Texarkana",
    "postalCode": 71854,
    "state": "Arkansas",
    "country": "United States of America",
    "latitude": 33.4160612999999,
    "longitude": -93.9643433999999,
    "timeZone": "America/Chicago",
    "rating": 12,
    "reviews": "https://search.google.com/local/reviews?placeid=ChIJfdpRCmFtNIYR5-Gk7GEQ--0&q=plumber,+71822,+Ashdown,+AR,+US&authuser=0&hl=en&gl=US",
    "reviewsLink": "",
    "workingHours": "Monday:Open 24 hours|Tuesday:Open 24 hours|Wednesday:Open 24 hours|Thursday:Open 24 hours|Friday:Open 24 hours|Saturday:Open 24 hours|Sunday:Open 24 hours",
    "locationLink": "17148318018911396327"
  },
  "elite_mechanical_services_llc": {
    "name": "Elite Mechanical Services, LLC",
    "phone": "+1 903-490-1844",
    "fullAddress": "206 Burgess St, Fouke, AR 71837",
    "street": "206 Burgess St",
    "city": "Fouke",
    "postalCode": 71837,
    "state": "Arkansas",
    "country": "United States of America",
    "latitude": 33.2650809999999,
    "longitude": -93.8986795,
    "timeZone": "America/Chicago",
    "rating": 29,
    "reviews": "https://search.google.com/local/reviews?placeid=ChIJcw-uvDwONIYRBJ1DBm79TYE&q=plumber,+71837,+Fouke,+AR,+US&authuser=0&hl=en&gl=US",
    "reviewsLink": "",
    "workingHours": "Monday:Open 24 hours|Tuesday:Open 24 hours|Wednesday:Open 24 hours|Thursday:Open 24 hours|Friday:Open 24 hours|Saturday:Open 24 hours|Sunday:Open 24 hours",
    "locationLink": "9317381853092748548"
  },
  "newton_plumbing_solutions": {
    "name": "NEWTON PLUMBING SOLUTIONS",
    "phone": "+1 903-336-0507",
    "fullAddress": "",
    "street": "",
    "city": "",
    "postalCode": "",
    "state": "",
    "country": "US",
    "latitude": 33.3909158,
    "longitude": -93.9942368,
    "timeZone": "America/Chicago",
    "rating": 17,
    "reviews": "https://search.google.com/local/reviews?placeid=ChIJ87Wwo5J6hIkR7uhFwRDbDI0&q=plumber,+71840,+Genoa,+AR,+US&authuser=0&hl=en&gl=US",
    "reviewsLink": "",
    "workingHours": "Monday:8:30AM-5PM|Tuesday:8:30AM-5PM|Wednesday:8:30AM-5PM|Thursday:8:30AM-5PM|Friday:8:30AM-3:30PM|Saturday:9AM-5PM|Sunday:Closed",
    "locationLink": "10163739324076910830"
  },
  "metro_supply_services": {
    "name": "Metro Supply & Services",
    "phone": "+1 870-772-2073",
    "fullAddress": "301 Hazel St, Texarkana, AR 71854",
    "street": "301 Hazel St",
    "city": "Texarkana",
    "postalCode": 71854,
    "state": "Arkansas",
    "country": "United States of America",
    "latitude": 33.4243829,
    "longitude": -94.0395698,
    "timeZone": "America/Chicago",
    "rating": 16,
    "reviews": "https://search.google.com/local/reviews?placeid=ChIJ8dkHDFpqNIYR70PAxlhfYko&q=plumber,+71840,+Genoa,+AR,+US&authuser=0&hl=en&gl=US",
    "reviewsLink": "",
    "workingHours": "Monday:8AM-5PM|Tuesday:8AM-5PM|Wednesday:8AM-5PM|Thursday:8AM-5PM|Friday:8AM-5PM|Saturday:Closed|Sunday:Closed",
    "locationLink": "5359951341420561391"
  },
  "brewton_plumbing_service_llc": {
    "name": "Brewton Plumbing Service LLC",
    "phone": "+1 479-459-4283",
    "fullAddress": "",
    "street": "",
    "city": "",
    "postalCode": "",
    "state": "",
    "country": "US",
    "latitude": 35.3477315,
    "longitude": -94.1926943,
    "timeZone": "America/Chicago",
    "rating": 65,
    "reviews": "https://search.google.com/local/reviews?placeid=ChIJiZTNf8yuIgwRvMjsM42TByQ&q=plumber,+72952,+Rudy,+AR,+US&authuser=0&hl=en&gl=US",
    "reviewsLink": "",
    "workingHours": "Monday:Open 24 hours|Tuesday:Open 24 hours|Wednesday:Open 24 hours|Thursday:Open 24 hours|Friday:Open 24 hours|Saturday:Open 24 hours|Sunday:Open 24 hours",
    "locationLink": "2596205944873207996"
  },
  "mb_plumbing_llc": {
    "name": "MB Plumbing LLC",
    "phone": "+1 479-388-8989",
    "fullAddress": "",
    "street": "",
    "city": "",
    "postalCode": "",
    "state": "",
    "country": "US",
    "latitude": 35.1359874,
    "longitude": -94.4761104999999,
    "timeZone": "America/Chicago",
    "rating": 6,
    "reviews": "https://search.google.com/local/reviews?placeid=ChIJsehamPALT2YRfdEQBtfWkNs&q=plumber,+72955,+Uniontown,+AR,+US&authuser=0&hl=en&gl=US",
    "reviewsLink": "",
    "workingHours": "Monday:Open 24 hours|Tuesday:Open 24 hours|Wednesday:Open 24 hours|Thursday:Open 24 hours|Friday:Open 24 hours|Saturday:Open 24 hours|Sunday:Open 24 hours",
    "locationLink": "15821381709960630653"
  },
  "grade_a_plumbing": {
    "name": "GRADE A PLUMBING",
    "phone": "+1 479-217-4262",
    "fullAddress": "",
    "street": "",
    "city": "",
    "postalCode": "",
    "state": "",
    "country": "US",
    "latitude": 35.3928599,
    "longitude": -94.1185952,
    "timeZone": "America/Chicago",
    "rating": 14,
    "reviews": "https://search.google.com/local/reviews?placeid=ChIJQ793fc7ry4cRGCeVlUQCBks&q=*&authuser=0&hl=en&gl=US",
    "reviewsLink": "",
    "workingHours": "Monday:Open 24 hours|Tuesday:Open 24 hours|Wednesday:Open 24 hours|Thursday:Open 24 hours|Friday:Open 24 hours|Saturday:Open 24 hours|Sunday:Closed",
    "locationLink": "5406010896295470872"
  },
  "fort_smith_handyman": {
    "name": "Fort Smith Handyman",
    "phone": "+1 479-651-9863",
    "fullAddress": "5600 Fresno St, Fort Smith, AR 72903",
    "street": "5600 Fresno St",
    "city": "Fort Smith",
    "postalCode": 72903,
    "state": "Arkansas",
    "country": "United States of America",
    "latitude": 35.3495098,
    "longitude": -94.3707471,
    "timeZone": "America/Chicago",
    "rating": 39,
    "reviews": "https://search.google.com/local/reviews?placeid=ChIJ9cQuXTizy4cRMBqrpgsy708&q=plumber,+72955,+Uniontown,+AR,+US&authuser=0&hl=en&gl=US",
    "reviewsLink": "",
    "workingHours": "Monday:8AM-6PM|Tuesday:8AM-6PM|Wednesday:8AM-6PM|Thursday:8AM-6PM|Friday:8AM-6PM|Saturday:7AM-7PM|Sunday:Closed",
    "locationLink": "5759877474052414000"
  },
  "jesse_pigeon_plumbing_llc": {
    "name": "Jesse Pigeon Plumbing LLC",
    "phone": "+1 479-256-1139",
    "fullAddress": "",
    "street": "",
    "city": "",
    "postalCode": "",
    "state": "",
    "country": "US",
    "latitude": 36.2584930999999,
    "longitude": -94.0319629999999,
    "timeZone": "America/Chicago",
    "rating": 18,
    "reviews": "https://search.google.com/local/reviews?placeid=ChIJVSOxjDmzgSIREyW4IgzJ2L8&q=plumber,+72955,+Uniontown,+AR,+US&authuser=0&hl=en&gl=US",
    "reviewsLink": "",
    "workingHours": "Monday:Open 24 hours|Tuesday:Open 24 hours|Wednesday:Open 24 hours|Thursday:Open 24 hours|Friday:Open 24 hours|Saturday:Open 24 hours|Sunday:Open 24 hours",
    "locationLink": "13824020110173021459"
  },
  "hawg_country_plumbing_drain_llc": {
    "name": "Hawg Country Plumbing & Drain, LLC",
    "phone": "+1 479-236-0864",
    "fullAddress": "",
    "street": "",
    "city": "",
    "postalCode": "",
    "state": "",
    "country": "US",
    "latitude": 35.8327145,
    "longitude": -93.7957184,
    "timeZone": "America/Chicago",
    "rating": 14,
    "reviews": "https://search.google.com/local/reviews?placeid=ChIJ7RvX2GhuyYcRqSyZ8GgXbLM&q=plumber,+72959,+Winslow,+AR,+US&authuser=0&hl=en&gl=US",
    "reviewsLink": "",
    "workingHours": "Monday:Open 24 hours|Tuesday:Open 24 hours|Wednesday:Open 24 hours|Thursday:Open 24 hours|Friday:Open 24 hours|Saturday:Open 24 hours|Sunday:Open 24 hours",
    "locationLink": "12928734369754459305"
  },
  "the_plumber": {
    "name": "The Plumber",
    "phone": "+1 479-900-4512",
    "fullAddress": "1400 Arkansas Ln, Prairie Grove, AR 72753",
    "street": "1400 Arkansas Ln",
    "city": "Prairie Grove",
    "postalCode": 72753,
    "state": "Arkansas",
    "country": "United States of America",
    "latitude": 35.9917217,
    "longitude": -94.3278598,
    "timeZone": "America/Chicago",
    "rating": 25,
    "reviews": "https://search.google.com/local/reviews?placeid=ChIJp7-zT7Z5yYcRGJ2sLk23008&q=plumber,+72959,+Winslow,+AR,+US&authuser=0&hl=en&gl=US",
    "reviewsLink": "",
    "workingHours": "Monday:Open 24 hours|Tuesday:Open 24 hours|Wednesday:Open 24 hours|Thursday:Open 24 hours|Friday:Open 24 hours|Saturday:Open 24 hours|Sunday:Open 24 hours",
    "locationLink": "5752142691205684504"
  },
  "hook_mechanical_llc": {
    "name": "Hook Mechanical LLC",
    "phone": "+1 479-200-6998",
    "fullAddress": "8269 US-412, Huntsville, AR 72740",
    "street": "8269 US-412",
    "city": "Huntsville",
    "postalCode": 72740,
    "state": "Arkansas",
    "country": "United States of America",
    "latitude": 36.121786,
    "longitude": -93.8088724,
    "timeZone": "America/Chicago",
    "rating": 26,
    "reviews": "https://search.google.com/local/reviews?placeid=ChIJEcvoa_NLyYcR8J22wQtK5D0&q=plumber,+72959,+Winslow,+AR,+US&authuser=0&hl=en&gl=US",
    "reviewsLink": "",
    "workingHours": "Monday:Open 24 hours|Tuesday:Open 24 hours|Wednesday:Open 24 hours|Thursday:Open 24 hours|Friday:Open 24 hours|Saturday:Open 24 hours|Sunday:Open 24 hours",
    "locationLink": "4459770945358700016"
  },
  "cunningham_restoration_llc": {
    "name": "Cunningham Restoration LLC",
    "phone": "+1 501-314-9957",
    "fullAddress": "18 4th St, Greenbrier, AR 72058",
    "street": "18 4th St",
    "city": "Greenbrier",
    "postalCode": 72058,
    "state": "Arkansas",
    "country": "United States of America",
    "latitude": 35.2422392,
    "longitude": -92.39357,
    "timeZone": "America/Chicago",
    "rating": 21,
    "reviews": "https://search.google.com/local/reviews?placeid=ChIJ04WkPqh_0ocRhRbatH26X2E&q=plumber,+72058,+Greenbrier,+AR,+US&authuser=0&hl=en&gl=US",
    "reviewsLink": "",
    "workingHours": "Monday:6AM-5PM|Tuesday:8AM-5PM|Wednesday:8AM-5PM|Thursday:8AM-5PM|Friday:8AM-5PM|Saturday:8:30AM-5PM|Sunday:Closed",
    "locationLink": "7016531793534391941"
  },
  "industrial_mechanical": {
    "name": "Industrial Mechanical",
    "phone": "+1 501-329-3319",
    "fullAddress": "2810 Anna Ln, Conway, AR 72034",
    "street": "2810 Anna Ln",
    "city": "Conway",
    "postalCode": 72034,
    "state": "Arkansas",
    "country": "United States of America",
    "latitude": 35.0751477999999,
    "longitude": -92.4704409,
    "timeZone": "America/Chicago",
    "rating": 6,
    "reviews": "https://search.google.com/local/reviews?placeid=ChIJ74PdshmC0ocRJB66jiluWbg&q=plumber,+72058,+Greenbrier,+AR,+US&authuser=0&hl=en&gl=US",
    "reviewsLink": "",
    "workingHours": "",
    "locationLink": "13283769700673265188"
  },
  "m_m_construction_remodeling": {
    "name": "M&M Construction & Remodeling",
    "phone": "+1 501-287-7599",
    "fullAddress": "Horseshoe, Mountain Dr, Greenbrier, AR 72058",
    "street": "Horseshoe, Mountain Dr",
    "city": "Greenbrier",
    "postalCode": 72058,
    "state": "AR",
    "country": "United States of America",
    "latitude": 35.2289947999999,
    "longitude": -92.4156472999999,
    "timeZone": "America/Chicago",
    "rating": 15,
    "reviews": "https://search.google.com/local/reviews?placeid=ChIJM6yj8gl_0ocRNL4dIa2rq50&q=plumber,+72058,+Greenbrier,+AR,+US&authuser=0&hl=en&gl=US",
    "reviewsLink": "",
    "workingHours": "Monday:8AM-5PM|Tuesday:8AM-5PM|Wednesday:8AM-5PM|Thursday:8AM-5PM|Friday:8AM-5PM|Saturday:8AM-5PM|Sunday:8AM-5PM",
    "locationLink": "11361363245045497396"
  },
  "arkansas_pristine_plumbing": {
    "name": "Arkansas Pristine Plumbing",
    "phone": "+1 501-743-7343",
    "fullAddress": "",
    "street": "",
    "city": "",
    "postalCode": "",
    "state": "",
    "country": "US",
    "latitude": 35.0384807999999,
    "longitude": -92.147684,
    "timeZone": "America/Chicago",
    "rating": 13,
    "reviews": "https://search.google.com/local/reviews?placeid=ChIJXT1GFgQEPUkRcVXF8vwnl2w&q=plumber,+72059,+Gregory,+AR,+US&authuser=0&hl=en&gl=US",
    "reviewsLink": "",
    "workingHours": "Monday:Open 24 hours|Tuesday:Open 24 hours|Wednesday:Open 24 hours|Thursday:Open 24 hours|Friday:Open 24 hours|Saturday:Open 24 hours|Sunday:Open 24 hours",
    "locationLink": "7824766844937786737"
  },
  "lyle_s_plumbing_service": {
    "name": "Lyle's Plumbing Service",
    "phone": "+1 501-606-0799",
    "fullAddress": "",
    "street": "",
    "city": "",
    "postalCode": "",
    "state": "",
    "country": "US",
    "latitude": 34.9251676,
    "longitude": -92.194122,
    "timeZone": "America/Chicago",
    "rating": 19,
    "reviews": "https://search.google.com/local/reviews?placeid=ChIJseiKNhiT0ocRLcGVf_DLzew&q=plumber,+72059,+Gregory,+AR,+US&authuser=0&hl=en&gl=US",
    "reviewsLink": "",
    "workingHours": "Monday:8AM-5PM|Tuesday:8AM-5PM|Wednesday:8AM-5PM|Thursday:8AM-5PM|Friday:8AM-5PM|Saturday:Closed|Sunday:Closed",
    "locationLink": "17063518796969787693"
  },
  "hazen_true_value": {
    "name": "Hazen True Value",
    "phone": "+1 870-255-3551",
    "fullAddress": "315 US-70, Hazen, AR 72064",
    "street": "315 US-70",
    "city": "Hazen",
    "postalCode": 72064,
    "state": "Arkansas",
    "country": "United States of America",
    "latitude": 34.7800941,
    "longitude": -91.5777586999999,
    "timeZone": "America/Chicago",
    "rating": 7,
    "reviews": "https://search.google.com/local/reviews?placeid=ChIJHxy7qr4-04cR9LJj4ZbSpWc&q=plumber,+72064,+Hazen,+AR,+US&authuser=0&hl=en&gl=US",
    "reviewsLink": "",
    "workingHours": "",
    "locationLink": "7468607102532170484"
  },
  "accuracy_heat_air_llc": {
    "name": "Accuracy Heat & Air LLC",
    "phone": "+1 501-230-3236",
    "fullAddress": "111 Railroad St, Higginson, AR 72068",
    "street": "111 Railroad St",
    "city": "Higginson",
    "postalCode": 72068,
    "state": "Arkansas",
    "country": "United States of America",
    "latitude": 35.1997871999999,
    "longitude": -91.7128803999999,
    "timeZone": "America/Chicago",
    "rating": 7,
    "reviews": "https://search.google.com/local/reviews?placeid=ChIJi1NzVIAH04cRWNbceOlVCVk&q=plumber,+72068,+Higginson,+AR,+US&authuser=0&hl=en&gl=US",
    "reviewsLink": "",
    "workingHours": "Monday:8AM-5PM|Tuesday:8AM-5PM|Wednesday:8AM-5PM|Thursday:8AM-5PM|Friday:8AM-5PM|Saturday:8AM-5PM|Sunday:Closed",
    "locationLink": "6415753605409461848"
  },
  "1st_call_plumbing_and_rooter_service": {
    "name": "1st call plumbing and rooter service",
    "phone": "+1 501-772-7352",
    "fullAddress": "1409 Rebel Dr, Jacksonville, Arkansas 72076",
    "street": "1409 Rebel Dr",
    "city": "Jacksonville",
    "postalCode": 72076,
    "state": "Arkansas",
    "country": "United States of America",
    "latitude": 35.3186489,
    "longitude": -87.6136849,
    "timeZone": "America/Chicago",
    "rating": 31,
    "reviews": "https://search.google.com/local/reviews?placeid=ChIJkxoTEefq0ocRDv-RCXPG-XA&q=plumber,+72076,+Jacksonville,+AR,+US&authuser=0&hl=en&gl=US",
    "reviewsLink": "",
    "workingHours": "Monday:Open 24 hours|Tuesday:Open 24 hours|Wednesday:Open 24 hours|Thursday:Open 24 hours|Friday:Open 24 hours|Saturday:Open 24 hours|Sunday:Open 24 hours",
    "locationLink": "8140755998832983822"
  },
  "rocky_s_garage": {
    "name": "Rocky's Garage",
    "phone": "+1 501-473-1648",
    "fullAddress": "119 Joyner St, Judsonia, AR 72081",
    "street": "119 Joyner St",
    "city": "Judsonia",
    "postalCode": 72081,
    "state": "Arkansas",
    "country": "United States of America",
    "latitude": 35.2960239,
    "longitude": -91.6359839,
    "timeZone": "America/Chicago",
    "rating": 42,
    "reviews": "https://search.google.com/local/reviews?placeid=ChIJA7aDnCuk04cRUjCspdtGseQ&q=plumber,+72081,+Judsonia,+AR,+US&authuser=0&hl=en&gl=US",
    "reviewsLink": "",
    "workingHours": "Monday:8AM-5PM|Tuesday:8AM-5PM|Wednesday:8AM-5PM|Thursday:8AM-5PM|Friday:8AM-5PM|Saturday:Closed|Sunday:Closed",
    "locationLink": "16479030420716662866"
  },
  "carpenter_s_carpentry": {
    "name": "Carpenter's Carpentry",
    "phone": "+1 501-388-8798",
    "fullAddress": "",
    "street": "",
    "city": "",
    "postalCode": "",
    "state": "",
    "country": "US",
    "latitude": 35.0807013999999,
    "longitude": -92.1239222,
    "timeZone": "America/Chicago",
    "rating": 9,
    "reviews": "https://search.google.com/local/reviews?placeid=ChIJ7XfJdzH-mGURrbZ6COQ15BA&q=plumber,+72081,+Judsonia,+AR,+US&authuser=0&hl=en&gl=US",
    "reviewsLink": "",
    "workingHours": "Monday:Open 24 hours|Tuesday:Open 24 hours|Wednesday:Open 24 hours|Thursday:Open 24 hours|Friday:Open 24 hours|Saturday:Open 24 hours|Sunday:Open 24 hours",
    "locationLink": "1217157052807952045"
  },
  "beardsley_plumbing": {
    "name": "Beardsley Plumbing",
    "phone": "+1 501-270-6564",
    "fullAddress": "909 S 8th St, Heber Springs, AR 72543",
    "street": "909 S 8th St",
    "city": "Heber Springs",
    "postalCode": 72543,
    "state": "Arkansas",
    "country": "United States of America",
    "latitude": 35.4827878,
    "longitude": -92.0379231,
    "timeZone": "America/Chicago",
    "rating": 20,
    "reviews": "https://search.google.com/local/reviews?placeid=ChIJiZmI5StH0ocRhRzJOFaUaqY&q=plumber,+72081,+Judsonia,+AR,+US&authuser=0&hl=en&gl=US",
    "reviewsLink": "",
    "workingHours": "Monday:7AM-5PM|Tuesday:7AM-5PM|Wednesday:7AM-5PM|Thursday:7AM-5PM|Friday:7AM-5PM|Saturday:9AM-5PM|Sunday:9AM-5PM",
    "locationLink": "11991560055868169349"
  },
  "diamond_state_plumbing": {
    "name": "Diamond State Plumbing",
    "phone": "+1 501-585-5454",
    "fullAddress": "506 Mimi Ln, Little Rock, AR 72211",
    "street": "506 Mimi Ln",
    "city": "Little Rock",
    "postalCode": 72211,
    "state": "Arkansas",
    "country": "United States of America",
    "latitude": 34.7582743,
    "longitude": -92.3981211,
    "timeZone": "America/Chicago",
    "rating": 148,
    "reviews": "https://search.google.com/local/reviews?placeid=ChIJg8wJPTGh0ocRXQU2LfkxE-U&q=*&authuser=0&hl=en&gl=US",
    "reviewsLink": "",
    "workingHours": "Monday:8AM-5PM|Tuesday:8AM-5PM|Wednesday:8AM-5PM|Thursday:8AM-5PM|Friday:8AM-5PM|Saturday:Closed|Sunday:Closed",
    "locationLink": "16506592005518132573"
  },
  "davidbrooks_plumbing_and_heating_and_air": {
    "name": "Davidbrooks Plumbing and Heating and Air",
    "phone": "+1 501-744-5403",
    "fullAddress": "312 E 54th St, North Little Rock, AR 72117",
    "street": "312 E 54th St",
    "city": "North Little Rock",
    "postalCode": 72117,
    "state": "Arkansas",
    "country": "United States of America",
    "latitude": 34.8020062999999,
    "longitude": -92.1933226,
    "timeZone": "America/Chicago",
    "rating": 26,
    "reviews": "https://search.google.com/local/reviews?placeid=ChIJ5yg0GGi_0ocRT1CqBMsN7n0&q=plumber,+72083,+Keo,+AR,+US&authuser=0&hl=en&gl=US",
    "reviewsLink": "",
    "workingHours": "Monday:Open 24 hours|Tuesday:Open 24 hours|Wednesday:Open 24 hours|Thursday:Open 24 hours|Friday:Open 24 hours|Saturday:Open 24 hours|Sunday:Open 24 hours",
    "locationLink": "9074205464805920847"
  },
  "rachal_facility_services_llc": {
    "name": "Rachal Facility Services, LLC",
    "phone": "+1 501-350-6366",
    "fullAddress": "",
    "street": "",
    "city": "",
    "postalCode": "",
    "state": "",
    "country": "US",
    "latitude": 34.6461898,
    "longitude": -92.5251404,
    "timeZone": "America/Chicago",
    "rating": 9,
    "reviews": "https://search.google.com/local/reviews?placeid=ChIJJ5PbvslqVK0RGSrWklXpswE&q=plumber,+72083,+Keo,+AR,+US&authuser=0&hl=en&gl=US",
    "reviewsLink": "",
    "workingHours": "Monday:8AM-5PM|Tuesday:8AM-5PM|Wednesday:8AM-5PM|Thursday:8AM-5PM|Friday:8AM-5PM|Saturday:Closed|Sunday:Closed",
    "locationLink": "122698168614136345"
  },
  "britt_rooter_24_hour_drain_cleaning_service": {
    "name": "Britt rooter 24/Hour Drain cleaning Service",
    "phone": "+1 501-707-8781",
    "fullAddress": "",
    "street": "",
    "city": "",
    "postalCode": "",
    "state": "",
    "country": "US",
    "latitude": 34.7076957999999,
    "longitude": -92.2602493999999,
    "timeZone": "America/Chicago",
    "rating": 10,
    "reviews": "https://search.google.com/local/reviews?placeid=ChIJ8ViwN8ev0ocRE6yLOGrE_dE&q=plumber,+72083,+Keo,+AR,+US&authuser=0&hl=en&gl=US",
    "reviewsLink": "",
    "workingHours": "Monday:Open 24 hours|Tuesday:Open 24 hours|Wednesday:Open 24 hours|Thursday:Open 24 hours|Friday:Open 24 hours|Saturday:Open 24 hours|Sunday:Open 24 hours",
    "locationLink": "15131466283528989715"
  },
  "creel_construction_llc": {
    "name": "Creel Construction LLC",
    "phone": "+1 601-441-4675",
    "fullAddress": "",
    "street": "",
    "city": "",
    "postalCode": "",
    "state": "",
    "country": "US",
    "latitude": 34.8314562,
    "longitude": -92.2474244,
    "timeZone": "America/Chicago",
    "rating": 12,
    "reviews": "https://search.google.com/local/reviews?placeid=ChIJccitxOvH0ocRj4iJ2wg7_NE&q=plumber,+72083,+Keo,+AR,+US&authuser=0&hl=en&gl=US",
    "reviewsLink": "",
    "workingHours": "Monday:8AM-5PM|Tuesday:8AM-5PM|Wednesday:8AM-5PM|Thursday:8AM-5PM|Friday:8AM-5PM|Saturday:8AM-5PM|Sunday:Closed",
    "locationLink": "15131033757287024783"
  },
  "don_m_houff_plumbing_co": {
    "name": "Don M Houff Plumbing Co",
    "phone": "+1 501-225-2411",
    "fullAddress": "11802 Kanis Rd, Little Rock, AR 72211",
    "street": "11802 Kanis Rd",
    "city": "Little Rock",
    "postalCode": 72211,
    "state": "Arkansas",
    "country": "United States of America",
    "latitude": 34.7437743,
    "longitude": -92.4052571,
    "timeZone": "America/Chicago",
    "rating": 12,
    "reviews": "https://search.google.com/local/reviews?placeid=ChIJrfD-N8mm0ocRsf2_LKp4ABo&q=plumber,+72083,+Keo,+AR,+US&authuser=0&hl=en&gl=US",
    "reviewsLink": "",
    "workingHours": "Monday:7:30AM-4:30PM|Tuesday:7:30AM-4:30PM|Wednesday:7:30AM-4:30PM|Thursday:7:30AM-4:30PM|Friday:7:30AM-4:30PM|Saturday:Closed|Sunday:Closed",
    "locationLink": "1873630117276679601"
  },
  "honor_doody_drain_service": {
    "name": "Honor & Doody Drain Service",
    "phone": "+1 501-551-0615",
    "fullAddress": "",
    "street": "",
    "city": "",
    "postalCode": "",
    "state": "",
    "country": "US",
    "latitude": 35.2952937999999,
    "longitude": -91.5527451999999,
    "timeZone": "America/Chicago",
    "rating": 22,
    "reviews": "https://search.google.com/local/reviews?placeid=ChIJIXC2QZVTzYcRFMd6QWE9EG8&q=plumber,+72087,+Lonsdale,+AR,+US&authuser=0&hl=en&gl=US",
    "reviewsLink": "",
    "workingHours": "Monday:Open 24 hours|Tuesday:Open 24 hours|Wednesday:Open 24 hours|Thursday:Open 24 hours|Friday:Open 24 hours|Saturday:Open 24 hours|Sunday:Open 24 hours",
    "locationLink": "8002964025757058836"
  },
  "laneco_professional_plumbing": {
    "name": "Laneco Professional Plumbing",
    "phone": "+1 501-617-4666",
    "fullAddress": "165 Turtle Creek Rd, Hot Springs Village, AR 71909",
    "street": "165 Turtle Creek Rd",
    "city": "Hot Springs Village",
    "postalCode": 71909,
    "state": "Arkansas",
    "country": "United States of America",
    "latitude": 34.6059358,
    "longitude": -93.0296845,
    "timeZone": "America/Chicago",
    "rating": 6,
    "reviews": "https://search.google.com/local/reviews?placeid=ChIJA_fpYdgozYcRv_Y2S8ardxY&q=plumber,+72087,+Lonsdale,+AR,+US&authuser=0&hl=en&gl=US",
    "reviewsLink": "",
    "workingHours": "",
    "locationLink": "1618951459216750271"
  },
  "lamb_plumbing_llc_the_tattooed_plumber": {
    "name": "Lamb Plumbing LLC The Tattooed Plumber",
    "phone": "+1 501-617-1271",
    "fullAddress": "",
    "street": "",
    "city": "",
    "postalCode": "",
    "state": "",
    "country": "US",
    "latitude": 34.5034330999999,
    "longitude": -93.175856,
    "timeZone": "America/Chicago",
    "rating": 33,
    "reviews": "https://search.google.com/local/reviews?placeid=ChIJrYBkFHn2ai4R3wmqRJk9OnE&q=plumber,+72087,+Lonsdale,+AR,+US&authuser=0&hl=en&gl=US",
    "reviewsLink": "",
    "workingHours": "Monday:7AM-4PM|Tuesday:7AM-4PM|Wednesday:7AM-4PM|Thursday:7AM-4PM|Friday:7AM-4PM|Saturday:7AM-12PM|Sunday:Closed",
    "locationLink": "8158901403426359775"
  },
  "mitchell_plumbing_llc": {
    "name": "Mitchell Plumbing LLC",
    "phone": "+1 501-249-6431",
    "fullAddress": "",
    "street": "",
    "city": "",
    "postalCode": "",
    "state": "",
    "country": "US",
    "latitude": 34.7864769,
    "longitude": -92.6398476999999,
    "timeZone": "America/Chicago",
    "rating": 17,
    "reviews": "https://search.google.com/local/reviews?placeid=ChIJl7ofgQTdEgoR8eCggq-ntqM&q=plumber,+72087,+Lonsdale,+AR,+US&authuser=0&hl=en&gl=US",
    "reviewsLink": "",
    "workingHours": "Monday:7:30AM-5PM|Tuesday:7:30AM-5PM|Wednesday:7:30AM-5PM|Thursday:7:30AM-5PM|Friday:7:30AM-5PM|Saturday:Closed|Sunday:Closed",
    "locationLink": "11796800646196289777"
  },
  "brico_plumbing": {
    "name": "Brico Plumbing",
    "phone": "+1 870-490-1424",
    "fullAddress": "109 Humble Ln, Mt Ida, AR 71957",
    "street": "109 Humble Ln",
    "city": "Mt Ida",
    "postalCode": 71957,
    "state": "Arkansas",
    "country": "United States of America",
    "latitude": 34.5492008999999,
    "longitude": -93.641536,
    "timeZone": "America/Chicago",
    "rating": 16,
    "reviews": "https://search.google.com/local/reviews?placeid=ChIJQVuIS4yvzIcRowle2CTbCwI&q=plumber,+72087,+Lonsdale,+AR,+US&authuser=0&hl=en&gl=US",
    "reviewsLink": "",
    "workingHours": "Monday:8AM-5PM|Tuesday:8AM-5PM|Wednesday:8AM-5PM|Thursday:8AM-5PM|Friday:8AM-5PM|Saturday:Closed|Sunday:Closed",
    "locationLink": "147452364115020195"
  },
  "tim_griggs_plumbing_company_inc": {
    "name": "Tim Griggs Plumbing Company Inc",
    "phone": "+1 501-316-1502",
    "fullAddress": "",
    "street": "",
    "city": "",
    "postalCode": "",
    "state": "",
    "country": "US",
    "latitude": 34.492917,
    "longitude": -92.6257804999999,
    "timeZone": "America/Chicago",
    "rating": 11,
    "reviews": "https://search.google.com/local/reviews?placeid=ChIJDWPH79hPzYcRkyNGvOtKOcE&q=plumber,+72087,+Lonsdale,+AR,+US&authuser=0&hl=en&gl=US",
    "reviewsLink": "",
    "workingHours": "Monday:8AM-4PM|Tuesday:8AM-4PM|Wednesday:8AM-4PM|Thursday:8AM-4PM|Friday:8AM-4PM|Saturday:Closed|Sunday:Closed",
    "locationLink": "13923242099329082259"
  },
  "tri_lakes_pumping_service_septic": {
    "name": "Tri-Lakes Pumping Service Septic",
    "phone": "+1 501-318-7124",
    "fullAddress": "242 Gilmer Ln, Hot Springs, AR 71901",
    "street": "242 Gilmer Ln",
    "city": "Hot Springs",
    "postalCode": 71901,
    "state": "Arkansas",
    "country": "United States of America",
    "latitude": 34.5650097,
    "longitude": -93.0024268,
    "timeZone": "America/Chicago",
    "rating": 9,
    "reviews": "https://search.google.com/local/reviews?placeid=ChIJ383bUCMvzYcREJveebRTTcI&q=*&authuser=0&hl=en&gl=US",
    "reviewsLink": "",
    "workingHours": "Monday:8AM-5PM|Tuesday:8AM-5PM|Wednesday:8AM-5PM|Thursday:8AM-5PM|Friday:8AM-5PM|Saturday:8AM-5PM|Sunday:Closed",
    "locationLink": "14000938851168590608"
  },
  "handyman_specialist": {
    "name": "Handyman Specialist",
    "phone": "+1 501-463-6564",
    "fullAddress": "1654 Malvern Ave, Hot Springs, AR 71901",
    "street": "1654 Malvern Ave",
    "city": "Hot Springs",
    "postalCode": 71901,
    "state": "Arkansas",
    "country": "United States of America",
    "latitude": 34.4917754999999,
    "longitude": -93.0374681999999,
    "timeZone": "America/Chicago",
    "rating": 7,
    "reviews": "https://search.google.com/local/reviews?placeid=ChIJgZbv_R4tzYcRToN3DbB5Wg8&q=*&authuser=0&hl=en&gl=US",
    "reviewsLink": "",
    "workingHours": "Monday:8AM-5PM|Tuesday:8AM-5PM|Wednesday:8AM-5PM|Thursday:8AM-5PM|Friday:8AM-5PM|Saturday:Closed|Sunday:Closed",
    "locationLink": "1106330455520019278"
  },
  "sheffield_plumbing_llc": {
    "name": "Sheffield Plumbing LLC",
    "phone": "+1 501-533-9834",
    "fullAddress": "1306 Katrina Dr, Bryant, AR 72022",
    "street": "1306 Katrina Dr",
    "city": "Bryant",
    "postalCode": 72022,
    "state": "Arkansas",
    "country": "United States of America",
    "latitude": 34.5832343,
    "longitude": -92.4961447,
    "timeZone": "America/Chicago",
    "rating": 6,
    "reviews": "https://search.google.com/local/reviews?placeid=ChIJNei_WANMFmgRB1VGB_u_0wM&q=plumber,+72089,+Bryant,+AR,+US&authuser=0&hl=en&gl=US",
    "reviewsLink": "",
    "workingHours": "Monday:8AM-5PM|Tuesday:8AM-5PM|Wednesday:8AM-5PM|Thursday:8AM-5PM|Friday:8AM-5PM|Saturday:Closed|Sunday:Closed",
    "locationLink": "275775087079478535"
  },
  "rohan_company_home_improvement_inc": {
    "name": "Rohan & Company Home Improvement Inc.",
    "phone": "+1 501-410-7299",
    "fullAddress": "",
    "street": "",
    "city": "",
    "postalCode": "",
    "state": "",
    "country": "US",
    "latitude": 34.9407551,
    "longitude": -91.2628907,
    "timeZone": "America/Chicago",
    "rating": 6,
    "reviews": "https://search.google.com/local/reviews?placeid=ChIJC44lGbbr0ocRIP6VWsv9N7k&q=plumber,+72099,+Little+Rock+Air+Force+Base,+AR,+US&authuser=0&hl=en&gl=US",
    "reviewsLink": "",
    "workingHours": "Monday:8:30AM-7PM|Tuesday:8:30AM-7PM|Wednesday:8:30AM-7PM|Thursday:8:30AM-7PM|Friday:8:30AM-7PM|Saturday:Closed|Sunday:Closed",
    "locationLink": "13346415070575722016"
  },
  "maxson_plumbing_and_drain_cleaning_inc": {
    "name": "Maxson Plumbing and Drain Cleaning Inc.",
    "phone": "+1 501-834-0600",
    "fullAddress": "",
    "street": "",
    "city": "",
    "postalCode": "",
    "state": "",
    "country": "US",
    "latitude": 34.8604714999999,
    "longitude": -92.1883996,
    "timeZone": "America/Chicago",
    "rating": 13,
    "reviews": "https://search.google.com/local/reviews?placeid=ChIJdX1d_ei_0ocRBAwAlCfI6cI&q=plumber,+72114,+North+Little+Rock,+AR,+US&authuser=0&hl=en&gl=US",
    "reviewsLink": "",
    "workingHours": "Monday:8AM-6PM|Tuesday:8AM-6PM|Wednesday:8AM-6PM|Thursday:8AM-6PM|Friday:8AM-6PM|Saturday:Closed|Sunday:Closed",
    "locationLink": "14044976985243913220"
  },
  "drains_and_things": {
    "name": "Drains and Things",
    "phone": "+1 501-753-5287",
    "fullAddress": "416 Pickwick Ln, North Little Rock, AR 72118",
    "street": "416 Pickwick Ln",
    "city": "North Little Rock",
    "postalCode": 72118,
    "state": "Arkansas",
    "country": "United States of America",
    "latitude": 34.8044273,
    "longitude": -92.2726967,
    "timeZone": "America/Chicago",
    "rating": 7,
    "reviews": "https://search.google.com/local/reviews?placeid=ChIJg6SczAS90ocRNEU6Z2usPpA&q=plumber,+72114,+North+Little+Rock,+AR,+US&authuser=0&hl=en&gl=US",
    "reviewsLink": "",
    "workingHours": "Monday:9AM-5PM|Tuesday:9AM-5PM|Wednesday:9AM-5PM|Thursday:9AM-5PM|Friday:9AM-5PM|Saturday:Closed|Sunday:Closed",
    "locationLink": "10393934567311033652"
  },
  "capitol_service_company_inc": {
    "name": "Capitol Service Company Inc",
    "phone": "+1 501-372-1101",
    "fullAddress": "6100 Getty Dr, North Little Rock, AR 72117",
    "street": "6100 Getty Dr",
    "city": "North Little Rock",
    "postalCode": 72117,
    "state": "Arkansas",
    "country": "United States of America",
    "latitude": 34.8210273,
    "longitude": -92.1932600999999,
    "timeZone": "America/Chicago",
    "rating": 7,
    "reviews": "https://search.google.com/local/reviews?placeid=ChIJ3yPhkYe80ocRZLm6JlvBTcI&q=*&authuser=0&hl=en&gl=US",
    "reviewsLink": "",
    "workingHours": "Monday:Open 24 hours|Tuesday:Open 24 hours|Wednesday:Open 24 hours|Thursday:Open 24 hours|Friday:Open 24 hours|Saturday:Open 24 hours|Sunday:Open 24 hours",
    "locationLink": "14001059413800696164"
  },
  "andy_b_s_plumbing": {
    "name": "Andy B's Plumbing",
    "phone": "+1 870-882-4690",
    "fullAddress": "",
    "street": "",
    "city": "",
    "postalCode": "",
    "state": "",
    "country": "US",
    "latitude": 35.7706762,
    "longitude": -91.6227239,
    "timeZone": "America/Chicago",
    "rating": 10,
    "reviews": "https://search.google.com/local/reviews?placeid=ChIJ82HZ2605Rq4Ru3K8jPL4GA0&q=plumber,+72501,+Batesville,+AR,+US&authuser=0&hl=en&gl=US",
    "reviewsLink": "",
    "workingHours": "Monday:Open 24 hours|Tuesday:Open 24 hours|Wednesday:Open 24 hours|Thursday:Open 24 hours|Friday:Open 24 hours|Saturday:Open 24 hours|Sunday:Open 24 hours",
    "locationLink": "943777842561053371"
  },
  "shaver_plumbing_hardware_inc": {
    "name": "Shaver Plumbing & Hardware Inc",
    "phone": "+1 870-895-3461",
    "fullAddress": "328 Hwy 62 W, Salem, AR 72576",
    "street": "328 Hwy 62 W",
    "city": "Salem",
    "postalCode": 72576,
    "state": "Arkansas",
    "country": "United States of America",
    "latitude": 36.3678144,
    "longitude": -91.8256026,
    "timeZone": "America/Chicago",
    "rating": 43,
    "reviews": "https://search.google.com/local/reviews?placeid=ChIJr2URqcEJ0YcRFbISYvCRj0M&q=plumber,+72512,+Horseshoe+Bend,+AR,+US&authuser=0&hl=en&gl=US",
    "reviewsLink": "",
    "workingHours": "Monday:8AM-5PM|Tuesday:8AM-5PM|Wednesday:8AM-5PM|Thursday:8AM-5PM|Friday:8AM-5PM|Saturday:8:30AM-12PM|Sunday:Closed",
    "locationLink": "4868270183834366485"
  },
  "prokop_construction": {
    "name": "Prokop Construction",
    "phone": "+1 870-710-1518",
    "fullAddress": "",
    "street": "",
    "city": "",
    "postalCode": "",
    "state": "",
    "country": "US",
    "latitude": 34.7520156,
    "longitude": -92.1294279999999,
    "timeZone": "America/Chicago",
    "rating": 7,
    "reviews": "https://search.google.com/local/reviews?placeid=ChIJl8R0U-Aqo0YRjwORR4iQTis&q=*&authuser=0&hl=en&gl=US",
    "reviewsLink": "",
    "workingHours": "Monday:7:30AM-10PM|Tuesday:7:30AM-10PM|Wednesday:7:30AM-10PM|Thursday:7:30AM-10PM|Friday:7:30AM-10PM|Saturday:8AM-10PM|Sunday:8AM-10PM",
    "locationLink": "3120590506804970383"
  },
  "johnson_s_hardware": {
    "name": "Johnson's Hardware",
    "phone": "+1 870-994-7331",
    "fullAddress": "962 Ash Flat Dr, Ash Flat, AR 72513",
    "street": "962 Ash Flat Dr",
    "city": "Ash Flat",
    "postalCode": 72513,
    "state": "Arkansas",
    "country": "United States of America",
    "latitude": 36.2350557,
    "longitude": -91.600139,
    "timeZone": "America/Chicago",
    "rating": 281,
    "reviews": "https://search.google.com/local/reviews?placeid=ChIJqZSg45ls0YcRkK8mXnqeszE&q=*&authuser=0&hl=en&gl=US",
    "reviewsLink": "",
    "workingHours": "Monday:8AM-5PM|Tuesday:8AM-5PM|Wednesday:8AM-5PM|Thursday:8AM-5PM|Friday:8AM-5PM|Saturday:8AM-4PM|Sunday:Closed",
    "locationLink": "3581380377092468624"
  },
  "handy_handyman": {
    "name": "Handy Handyman",
    "phone": "+1 870-321-1706",
    "fullAddress": "",
    "street": "",
    "city": "",
    "postalCode": "",
    "state": "",
    "country": "US",
    "latitude": 36.2491894,
    "longitude": -92.3575848999999,
    "timeZone": "America/Chicago",
    "rating": 8,
    "reviews": "https://search.google.com/local/reviews?placeid=ChIJ1XTesS_o0YcReFsIf7ITcuo&q=plumber,+72519,+Calico+Rock,+AR,+US&authuser=0&hl=en&gl=US",
    "reviewsLink": "",
    "workingHours": "Monday:8AM-5PM|Tuesday:8AM-5PM|Wednesday:8AM-5PM|Thursday:8AM-5PM|Friday:8AM-5PM|Saturday:Closed|Sunday:Closed",
    "locationLink": "16893586809576512376"
  },
  "smitty_s_septic_services": {
    "name": "Smitty's Septic Services",
    "phone": "+1 870-481-6134",
    "fullAddress": "106 Black Gold Trl, Mountain Home, AR 72653",
    "street": "106 Black Gold Trl",
    "city": "Mountain Home",
    "postalCode": 72653,
    "state": "Arkansas",
    "country": "United States of America",
    "latitude": 36.404537,
    "longitude": -92.4214159,
    "timeZone": "America/Chicago",
    "rating": 13,
    "reviews": "https://search.google.com/local/reviews?placeid=ChIJf5cf0CzY0YcRmJWBoWT8HPI&q=plumber,+72528,+Dolph,+AR,+US&authuser=0&hl=en&gl=US",
    "reviewsLink": "",
    "workingHours": "Monday:8AM-4:30PM|Tuesday:8AM-4:30PM|Wednesday:8AM-4:30PM|Thursday:8AM-4:30PM|Friday:8AM-4:30PM|Saturday:Closed|Sunday:Closed",
    "locationLink": "17446096565663012248"
  },
  "risner_cantrell_pump_service": {
    "name": "Risner Cantrell Pump Service",
    "phone": "+1 870-321-6062",
    "fullAddress": "4106 AR-5, Mountain Home, AR 72653",
    "street": "4106 AR-5",
    "city": "Mountain Home",
    "postalCode": 72653,
    "state": "Arkansas",
    "country": "United States of America",
    "latitude": 36.3685648,
    "longitude": -92.4347028999999,
    "timeZone": "America/Chicago",
    "rating": 19,
    "reviews": "https://search.google.com/local/reviews?placeid=ChIJ10V04awTEQYRoy6pQfwYgjQ&q=plumber,+72528,+Dolph,+AR,+US&authuser=0&hl=en&gl=US",
    "reviewsLink": "",
    "workingHours": "Monday:Open 24 hours|Tuesday:Open 24 hours|Wednesday:Open 24 hours|Thursday:Open 24 hours|Friday:Open 24 hours|Saturday:Open 24 hours|Sunday:Open 24 hours",
    "locationLink": "3783614108657069731"
  },
  "the_village_plumber": {
    "name": "The Village Plumber",
    "phone": "+1 479-855-3221",
    "fullAddress": "17 Stevenson Ln, Bella Vista, AR 72714",
    "street": "17 Stevenson Ln",
    "city": "Bella Vista",
    "postalCode": 72714,
    "state": "Arkansas",
    "country": "United States of America",
    "latitude": 36.447437,
    "longitude": -94.2291359,
    "timeZone": "America/Chicago",
    "rating": 46,
    "reviews": "https://search.google.com/local/reviews?placeid=ChIJz3GBOeEcyYcR7UT3DvmUTxs&q=plumber,+72533,+Fifty+Six,+AR,+US&authuser=0&hl=en&gl=US",
    "reviewsLink": "",
    "workingHours": "Monday:8AM-5PM|Tuesday:8AM-5PM|Wednesday:8AM-5PM|Thursday:8AM-5PM|Friday:8AM-5PM|Saturday:9AM-12PM|Sunday:Closed",
    "locationLink": "1967955359603049709"
  },
  "jeff_camper_plumbing_drain": {
    "name": "Jeff Camper Plumbing & Drain",
    "phone": "+1 417-251-2387",
    "fullAddress": "",
    "street": "",
    "city": "",
    "postalCode": "",
    "state": "",
    "country": "US",
    "latitude": 36.746975,
    "longitude": -93.472838,
    "timeZone": "America/Chicago",
    "rating": 6,
    "reviews": "https://search.google.com/local/reviews?placeid=ChIJLTIlKdRhWWIR_75-4jyyVdQ&q=plumber,+72568,+Pleasant+Plains,+AR,+US&authuser=0&hl=en&gl=US",
    "reviewsLink": "",
    "workingHours": "Monday:Open 24 hours|Tuesday:Open 24 hours|Wednesday:Open 24 hours|Thursday:Open 24 hours|Friday:Open 24 hours|Saturday:Open 24 hours|Sunday:Open 24 hours",
    "locationLink": "15300331283628867327"
  },
  "all_calls_plumbing": {
    "name": "All Calls Plumbing",
    "phone": "+1 479-544-3331",
    "fullAddress": "",
    "street": "",
    "city": "",
    "postalCode": "",
    "state": "",
    "country": "US",
    "latitude": 36.3779579,
    "longitude": -94.216675,
    "timeZone": "America/Chicago",
    "rating": 35,
    "reviews": "https://search.google.com/local/reviews?placeid=ChIJRau1Ub8QyYcRR0_meilKIHE&q=plumber,+72575,+Salado,+AR,+US&authuser=0&hl=en&gl=US",
    "reviewsLink": "",
    "workingHours": "Monday:7AM-5PM|Tuesday:7AM-5PM|Wednesday:7AM-5PM|Thursday:7AM-5PM|Friday:7AM-5PM|Saturday:7AM-12PM|Sunday:Closed",
    "locationLink": "8151596867556626247"
  },
  "handy_mandy_s": {
    "name": "Handy Mandy's",
    "phone": "+1 501-294-8580",
    "fullAddress": "339 Heber Springs Rd, Batesville, AR 72501",
    "street": "339 Heber Springs Rd",
    "city": "Batesville",
    "postalCode": 72501,
    "state": "Arkansas",
    "country": "United States of America",
    "latitude": 35.7408457,
    "longitude": -91.6491959999999,
    "timeZone": "America/Chicago",
    "rating": 9,
    "reviews": "https://search.google.com/local/reviews?placeid=ChIJQWAZxLzb04cRfcbivvlA0JQ&q=plumber,+72575,+Salado,+AR,+US&authuser=0&hl=en&gl=US",
    "reviewsLink": "",
    "workingHours": "Monday:8AM-6PM|Tuesday:8AM-6PM|Wednesday:8AM-6PM|Thursday:8AM-6PM|Friday:8AM-6PM|Saturday:9AM-5PM|Sunday:12:30-5PM",
    "locationLink": "10723142154162718333"
  },
  "amanda_s_handyman_services_more": {
    "name": "Amanda's Handyman Services & More",
    "phone": "+1 501-294-8580",
    "fullAddress": "3515 Harrison St Apt #1, Batesville, AR 72501",
    "street": "3515 Harrison St Apt #1",
    "city": "Batesville",
    "postalCode": 72501,
    "state": "Arkansas",
    "country": "United States of America",
    "latitude": 35.7705504,
    "longitude": -91.6037589,
    "timeZone": "America/Chicago",
    "rating": 5,
    "reviews": "https://search.google.com/local/reviews?placeid=ChIJI6HZBWTb04cRHxJJNyg2A-U&q=plumber,+72575,+Salado,+AR,+US&authuser=0&hl=en&gl=US",
    "reviewsLink": "",
    "workingHours": "Monday:8AM-6PM|Tuesday:8AM-6PM|Wednesday:8AM-6PM|Thursday:8AM-6PM|Friday:8AM-6PM|Saturday:8AM-6PM|Sunday:Closed",
    "locationLink": "16502093005969756703"
  },
  "arkansas_power_dry_water_damage": {
    "name": "Arkansas Power Dry - Water Damage",
    "phone": "+1 501-604-0369",
    "fullAddress": "601 AR-87, Bradford, AR 72020",
    "street": "601 AR-87",
    "city": "Bradford",
    "postalCode": 72020,
    "state": "Arkansas",
    "country": "United States of America",
    "latitude": 35.4244333,
    "longitude": -91.4659097,
    "timeZone": "America/Chicago",
    "rating": 10,
    "reviews": "https://search.google.com/local/reviews?placeid=ChIJKUiS38yX04cRut39-FZDI6U&q=plumber,+72575,+Salado,+AR,+US&authuser=0&hl=en&gl=US",
    "reviewsLink": "",
    "workingHours": "Monday:Open 24 hours|Tuesday:Open 24 hours|Wednesday:Open 24 hours|Thursday:Open 24 hours|Friday:Open 24 hours|Saturday:Open 24 hours|Sunday:Open 24 hours",
    "locationLink": "11899428681266617786"
  },
  "all_phase_plumbing": {
    "name": "All-Phase Plumbing",
    "phone": "+1 870-743-6649",
    "fullAddress": "508 E Stephenson Ave, Harrison, AR 72601",
    "street": "508 E Stephenson Ave",
    "city": "Harrison",
    "postalCode": 72601,
    "state": "Arkansas",
    "country": "United States of America",
    "latitude": 36.2291552,
    "longitude": -93.1004639,
    "timeZone": "America/Chicago",
    "rating": 31,
    "reviews": "https://search.google.com/local/reviews?placeid=ChIJEZLkjVb1zocRBUGcBhZQZlA&q=plumber,+72601,+Harrison,+AR,+US&authuser=0&hl=en&gl=US",
    "reviewsLink": "",
    "workingHours": "",
    "locationLink": "5793406026189127941"
  },
  "a_plumbing_and_drain_cleaning": {
    "name": "A+ Plumbing and Drain Cleaning",
    "phone": "+1 870-350-3504",
    "fullAddress": "",
    "street": "",
    "city": "",
    "postalCode": "",
    "state": "",
    "country": "US",
    "latitude": 36.5550275,
    "longitude": -93.3276255,
    "timeZone": "America/Chicago",
    "rating": 19,
    "reviews": "https://search.google.com/local/reviews?placeid=ChIJ4Y-BLTjjzocRkQZQjQ4sxaU&q=plumber,+72611,+Alpena,+AR,+US&authuser=0&hl=en&gl=US",
    "reviewsLink": "",
    "workingHours": "Monday:Open 24 hours|Tuesday:Open 24 hours|Wednesday:Open 24 hours|Thursday:Open 24 hours|Friday:Open 24 hours|Saturday:Open 24 hours|Sunday:Open 24 hours",
    "locationLink": "11945002027682104977"
  },
  "snakes_r_us_drain_service": {
    "name": "Snakes R Us Drain Service",
    "phone": "+1 724-630-3376",
    "fullAddress": "",
    "street": "",
    "city": "",
    "postalCode": "",
    "state": "",
    "country": "US",
    "latitude": 40.8027255,
    "longitude": -80.2876295,
    "timeZone": "America/New_York",
    "rating": 50,
    "reviews": "https://search.google.com/local/reviews?placeid=ChIJp6w1arF0qGgRih2W5OKHWZ0&q=plumber,+72613,+Beaver,+AR,+US&authuser=0&hl=en&gl=US",
    "reviewsLink": "",
    "workingHours": "Monday:Open 24 hours|Tuesday:Open 24 hours|Wednesday:Open 24 hours|Thursday:Open 24 hours|Friday:Open 24 hours|Saturday:Open 24 hours|Sunday:Open 24 hours",
    "locationLink": "11338242945449336202"
  },
  "finish_line_plumbing_llc": {
    "name": "Finish Line Plumbing, LLC",
    "phone": "+1 540-771-6333",
    "fullAddress": "132 Linster Ln, Berryville, VA 22611",
    "street": "132 Linster Ln",
    "city": "Berryville",
    "postalCode": 22611,
    "state": "Virginia",
    "country": "United States of America",
    "latitude": 39.1047437,
    "longitude": -77.9845485,
    "timeZone": "America/New_York",
    "rating": 157,
    "reviews": "https://search.google.com/local/reviews?placeid=ChIJyy1bp7ThtYkRZgadj4F3YvM&q=plumber,+72616,+Berryville,+AR,+US&authuser=0&hl=en&gl=US",
    "reviewsLink": "",
    "workingHours": "Monday:Open 24 hours|Tuesday:Open 24 hours|Wednesday:Open 24 hours|Thursday:Open 24 hours|Friday:Open 24 hours|Saturday:Open 24 hours|Sunday:Open 24 hours",
    "locationLink": "17537711297278051942"
  },
  "big_springs_swimming_hole": {
    "name": "Big Springs Swimming Hole",
    "phone": "",
    "fullAddress": "Cotter, AR 72626",
    "street": "",
    "city": "Cotter",
    "postalCode": 72626,
    "state": "Arkansas",
    "country": "United States of America",
    "latitude": 36.2658877,
    "longitude": -92.5430681,
    "timeZone": "America/Chicago",
    "rating": 9,
    "reviews": "https://search.google.com/local/reviews?placeid=ChIJq7Zjk2kjzocRYNHMnOsqCzE&q=plumber,+72626,+Cotter,+AR,+US&authuser=0&hl=en&gl=US",
    "reviewsLink": "",
    "workingHours": "",
    "locationLink": "3533965524038635872"
  },
  "a_a_plumbing_inc": {
    "name": "A & A Plumbing Inc",
    "phone": "+1 870-449-2092",
    "fullAddress": "1507 Marion County 8052, Yellville, AR 72687",
    "street": "1507 Marion County 8052",
    "city": "Yellville",
    "postalCode": 72687,
    "state": "Arkansas",
    "country": "United States of America",
    "latitude": 36.2782518,
    "longitude": -92.6581164,
    "timeZone": "America/Chicago",
    "rating": 7,
    "reviews": "https://search.google.com/local/reviews?placeid=ChIJtXNdQlU8zocREovDl_OWlWM&q=plumber,+72626,+Cotter,+AR,+US&authuser=0&hl=en&gl=US",
    "reviewsLink": "",
    "workingHours": "Monday:9AM-5PM|Tuesday:9AM-5PM|Wednesday:9AM-5PM|Thursday:9AM-5PM|Friday:9AM-5PM|Saturday:Closed|Sunday:Closed",
    "locationLink": "7175807554252147474"
  },
  "cotter_bridge": {
    "name": "Cotter Bridge",
    "phone": "",
    "fullAddress": "Cotter, AR 72626",
    "street": "",
    "city": "Cotter",
    "postalCode": 72626,
    "state": "Arkansas",
    "country": "United States of America",
    "latitude": 36.2672583,
    "longitude": -92.5441886,
    "timeZone": "America/Chicago",
    "rating": 59,
    "reviews": "https://search.google.com/local/reviews?placeid=ChIJJ_3NciYizocRztNv2lmlg2w&q=plumber,+72626,+Cotter,+AR,+US&authuser=0&hl=en&gl=US",
    "reviewsLink": "",
    "workingHours": "",
    "locationLink": "7819275183380747214"
  },
  "duffy_brothers_heating_cooling_llc": {
    "name": "Duffy Brothers Heating & Cooling, LLC",
    "phone": "+1 870-449-6971",
    "fullAddress": "401 Old Main St, Yellville, AR 72687",
    "street": "401 Old Main St",
    "city": "Yellville",
    "postalCode": 72687,
    "state": "Arkansas",
    "country": "United States of America",
    "latitude": 36.2252527,
    "longitude": -92.6832735999999,
    "timeZone": "America/Chicago",
    "rating": 7,
    "reviews": "https://search.google.com/local/reviews?placeid=ChIJ-4cuNMA_zocRLA50AfmLkyg&q=plumber,+72626,+Cotter,+AR,+US&authuser=0&hl=en&gl=US",
    "reviewsLink": "",
    "workingHours": "Monday:7AM-8PM|Tuesday:7AM-8PM|Wednesday:7AM-8PM|Thursday:7AM-8PM|Friday:7AM-8PM|Saturday:7AM-8PM|Sunday:Closed",
    "locationLink": "2923834484681084460"
  },
  "big_spring_park": {
    "name": "Big Spring Park",
    "phone": "",
    "fullAddress": "Big Spring Pkwy, Cotter, AR 72626",
    "street": "Big Spring Pkwy",
    "city": "Cotter",
    "postalCode": 72626,
    "state": "Arkansas",
    "country": "United States of America",
    "latitude": 36.2660561,
    "longitude": -92.5423807999999,
    "timeZone": "America/Chicago",
    "rating": 71,
    "reviews": "https://search.google.com/local/reviews?placeid=ChIJ_2rRQO0jzocRDH8sBxULM8o&q=plumber,+72626,+Cotter,+AR,+US&authuser=0&hl=en&gl=US",
    "reviewsLink": "",
    "workingHours": "Monday:5AM-10PM|Tuesday:5AM-10PM|Wednesday:5AM-10PM|Thursday:5AM-10PM|Friday:5AM-10PM|Saturday:5AM-10PM|Sunday:5AM-10PM",
    "locationLink": "14570001404416261900"
  },
  "affordable_r_h_plumbing": {
    "name": "Affordable R & H Plumbing",
    "phone": "+1 417-334-4224",
    "fullAddress": "5715 MO-76, Kirbyville, MO 65679",
    "street": "5715 MO-76",
    "city": "Kirbyville",
    "postalCode": 65679,
    "state": "Missouri",
    "country": "United States of America",
    "latitude": 36.626143,
    "longitude": -93.139651,
    "timeZone": "America/Chicago",
    "rating": 19,
    "reviews": "https://search.google.com/local/reviews?placeid=ChIJmQfhcb4Bz4cRC-woVndgytU&q=*&authuser=0&hl=en&gl=US",
    "reviewsLink": "",
    "workingHours": "Monday:8AM-5PM|Tuesday:8AM-5PM|Wednesday:8AM-5PM|Thursday:8AM-5PM|Friday:8AM-5PM|Saturday:8AM-12PM|Sunday:Closed",
    "locationLink": "15405231541037100043"
  },
  "branson_24_7_plumbing_electrical": {
    "name": "Branson 24/7 Plumbing & Electrical",
    "phone": "+1 417-988-5510",
    "fullAddress": "158 Mandolin Dr, Kirbyville, MO 65679",
    "street": "158 Mandolin Dr",
    "city": "Kirbyville",
    "postalCode": 65679,
    "state": "Missouri",
    "country": "United States of America",
    "latitude": 36.6244113,
    "longitude": -93.1612052999999,
    "timeZone": "America/Chicago",
    "rating": 5,
    "reviews": "https://search.google.com/local/reviews?placeid=ChIJR20tK18Bz4cRTtlJM5A2bLE&q=*&authuser=0&hl=en&gl=US",
    "reviewsLink": "",
    "workingHours": "Monday:Open 24 hours|Tuesday:Open 24 hours|Wednesday:Open 24 hours|Thursday:Open 24 hours|Friday:Open 24 hours|Saturday:Open 24 hours|Sunday:Open 24 hours",
    "locationLink": "12784653435161663822"
  },
  "adkins_refrigeration_hvac": {
    "name": "Adkins Refrigeration HVAC",
    "phone": "+1 479-253-9776",
    "fullAddress": "5579 AR-23 N, Eureka Springs, AR 72631",
    "street": "5579 AR-23 N",
    "city": "Eureka Springs",
    "postalCode": 72631,
    "state": "Arkansas",
    "country": "United States of America",
    "latitude": 36.4556416,
    "longitude": -93.7068649,
    "timeZone": "America/Chicago",
    "rating": 23,
    "reviews": "https://search.google.com/local/reviews?placeid=ChIJx77pXPHUzocRxuAKp8mhcLE&q=plumber,+72632,+Eureka+Springs,+AR,+US&authuser=0&hl=en&gl=US",
    "reviewsLink": "",
    "workingHours": "Monday:8AM-4:30PM|Tuesday:8AM-4:30PM|Wednesday:8AM-4:30PM|Thursday:8AM-4:30PM|Friday:8AM-4:30PM|Saturday:Closed|Sunday:Closed",
    "locationLink": "12785897229567844550"
  },
  "curt_s_handyman_service": {
    "name": "Curt's Handyman Service",
    "phone": "+1 870-321-9350",
    "fullAddress": "5073 AR-5, Mountain Home, AR 72653",
    "street": "5073 AR-5",
    "city": "Mountain Home",
    "postalCode": 72653,
    "state": "Arkansas",
    "country": "United States of America",
    "latitude": 36.2908979,
    "longitude": -92.3256866,
    "timeZone": "America/Chicago",
    "rating": 7,
    "reviews": "https://search.google.com/local/reviews?placeid=ChIJyYcMsXLZLUYROjIlca2IxyU&q=plumber,+72653,+Mountain+Home,+AR,+US&authuser=0&hl=en&gl=US",
    "reviewsLink": "",
    "workingHours": "Monday:8AM-5PM|Tuesday:8AM-5PM|Wednesday:8AM-5PM|Thursday:8AM-5PM|Friday:8AM-5PM|Saturday:Closed|Sunday:Closed",
    "locationLink": "2722294778277737018"
  },
  "morris_septic_tanks_service_llc": {
    "name": "Morris Septic Tanks & Service LLC",
    "phone": "+1 870-550-6198",
    "fullAddress": "9724 Sulphur Springs Rd, Pine Bluff, AR 71603",
    "street": "9724 Sulphur Springs Rd",
    "city": "Pine Bluff",
    "postalCode": 71603,
    "state": "Arkansas",
    "country": "United States of America",
    "latitude": 34.17366,
    "longitude": -92.136866,
    "timeZone": "America/Chicago",
    "rating": 5,
    "reviews": "https://search.google.com/local/reviews?placeid=ChIJpeohpno_LYYR-zrwRSWRkfE&q=plumber,+71613,+Pine+Bluff,+AR,+US&authuser=0&hl=en&gl=US",
    "reviewsLink": "",
    "workingHours": "Monday:6AM-8PM|Tuesday:6AM-8PM|Wednesday:6AM-8PM|Thursday:6AM-8PM|Friday:6AM-8PM|Saturday:8AM-5PM|Sunday:9AM-2PM",
    "locationLink": "17406853624036866811"
  },
  "max_air_heating_and_air": {
    "name": "MAX AIR HEATING AND AIR",
    "phone": "+1 501-529-9830",
    "fullAddress": "",
    "street": "",
    "city": "",
    "postalCode": "",
    "state": "",
    "country": "US",
    "latitude": 34.7520156,
    "longitude": -92.1294279999999,
    "timeZone": "America/Chicago",
    "rating": 38,
    "reviews": "https://search.google.com/local/reviews?placeid=ChIJWVyUs0BRzYcRE78fLcy0osQ&q=*&authuser=0&hl=en&gl=US",
    "reviewsLink": "",
    "workingHours": "",
    "locationLink": "14169086166684385043"
  },
  "clemenson_services_llc": {
    "name": "Clemenson Services LLC",
    "phone": "+1 430-342-2712",
    "fullAddress": "13360 US-79, Kingsland, AR 71652",
    "street": "13360 US-79",
    "city": "Kingsland",
    "postalCode": 71652,
    "state": "Arkansas",
    "country": "United States of America",
    "latitude": 33.8818346,
    "longitude": -92.2528968,
    "timeZone": "America/Chicago",
    "rating": 5,
    "reviews": "https://search.google.com/local/reviews?placeid=ChIJfQjMOkJxLYYREbT8ySxAMc4&q=plumber,+71652,+Kingsland,+AR,+US&authuser=0&hl=en&gl=US",
    "reviewsLink": "",
    "workingHours": "Monday:7AM-7PM|Tuesday:7AM-7PM|Wednesday:7AM-7PM|Thursday:7AM-7PM|Friday:7AM-7PM|Saturday:Closed|Sunday:8AM-5PM",
    "locationLink": "14857727206783497233"
  },
  "air_plumbing_services": {
    "name": "Air Plumbing Services",
    "phone": "+1 914-352-9009",
    "fullAddress": "1921 Commerce St, Yorktown Heights, NY 10598",
    "street": "1921 Commerce St",
    "city": "Yorktown Heights",
    "postalCode": 10598,
    "state": "New York",
    "country": "United States of America",
    "latitude": 41.2743786,
    "longitude": -73.7810179,
    "timeZone": "America/New_York",
    "rating": 14,
    "reviews": "https://search.google.com/local/reviews?placeid=ChIJ5UB6AR23wokRSV63VuWseQ0&q=plumber,+71678,+Yorktown,+AR,+US&authuser=0&hl=en&gl=US",
    "reviewsLink": "",
    "workingHours": "Monday:9AM-5PM|Tuesday:9AM-5PM|Wednesday:9AM-5PM|Thursday:9AM-5PM|Friday:9AM-5PM|Saturday:9AM-5PM|Sunday:9AM-5PM",
    "locationLink": "970997295677398601"
  },
  "justin_time_construction": {
    "name": "Justin Time Construction",
    "phone": "+1 479-692-9537",
    "fullAddress": "",
    "street": "",
    "city": "",
    "postalCode": "",
    "state": "",
    "country": "US",
    "latitude": 35.0776545,
    "longitude": -92.9303166,
    "timeZone": "America/Chicago",
    "rating": 43,
    "reviews": "https://search.google.com/local/reviews?placeid=ChIJlaJ6XPxkXAIRNpwsob7tEfs&q=plumber,+72001,+Adona,+AR,+US&authuser=0&hl=en&gl=US",
    "reviewsLink": "",
    "workingHours": "Monday:Open 24 hours|Tuesday:Open 24 hours|Wednesday:Open 24 hours|Thursday:Open 24 hours|Friday:Open 24 hours|Saturday:Open 24 hours|Sunday:Open 24 hours",
    "locationLink": "18091502581127617590"
  },
  "outdoor_creations": {
    "name": "Outdoor creations",
    "phone": "+1 501-249-7102",
    "fullAddress": "314 W Woodlawn St, Benton, AR 72015",
    "street": "314 W Woodlawn St",
    "city": "Benton",
    "postalCode": 72015,
    "state": "Arkansas",
    "country": "United States of America",
    "latitude": 34.5455576999999,
    "longitude": -92.5904606,
    "timeZone": "America/Chicago",
    "rating": 5,
    "reviews": "https://search.google.com/local/reviews?placeid=ChIJcVGdj-hTzYcRARju9jG9cIo&q=plumber,+72018,+Benton,+AR,+US&authuser=0&hl=en&gl=US",
    "reviewsLink": "",
    "workingHours": "Monday:7AM-9PM|Tuesday:7AM-9PM|Wednesday:7AM-9PM|Thursday:7AM-9PM|Friday:7AM-9PM|Saturday:9AM-2PM|Sunday:Closed",
    "locationLink": "9975681196919494657"
  },
  "riverbend_air_conditioning_inc": {
    "name": "Riverbend Air Conditioning Inc",
    "phone": "",
    "fullAddress": "2009 AR-38, Des Arc, AR 72040",
    "street": "2009 AR-38",
    "city": "Des Arc",
    "postalCode": 72040,
    "state": "Arkansas",
    "country": "United States of America",
    "latitude": 34.9790081,
    "longitude": -91.5137591,
    "timeZone": "America/Chicago",
    "rating": 10,
    "reviews": "https://search.google.com/local/reviews?placeid=ChIJd9xeWfts04cR3Gqjjc1NbXs&q=plumber,+72040,+Des+Arc,+AR,+US&authuser=0&hl=en&gl=US",
    "reviewsLink": "",
    "workingHours": "Monday:8:01AM-12AM|Tuesday:8:01AM-12AM|Wednesday:8:01AM-12AM|Thursday:8:01AM-12AM|Friday:8:01AM-12AM|Saturday:8:01AM-5AM|Sunday:8:01AM-12AM",
    "locationLink": "8893850384366529244"
  },
  "war_service_co": {
    "name": "WAR service Co.",
    "phone": "+1 870-953-1050",
    "fullAddress": "1340 Lafayette 31, Stamps, AR 71860",
    "street": "1340 Lafayette 31",
    "city": "Stamps",
    "postalCode": 71860,
    "state": "Arkansas",
    "country": "United States of America",
    "latitude": 33.3667799,
    "longitude": -93.4786077,
    "timeZone": "America/Chicago",
    "rating": 10,
    "reviews": "https://search.google.com/local/reviews?placeid=ChIJLw3lGdRkX0gRkqkndwhgauk&q=plumber,+71860,+Stamps,+AR,+US&authuser=0&hl=en&gl=US",
    "reviewsLink": "",
    "workingHours": "Monday:Open 24 hours|Tuesday:Open 24 hours|Wednesday:Open 24 hours|Thursday:Open 24 hours|Friday:Open 24 hours|Saturday:Open 24 hours|Sunday:Open 24 hours",
    "locationLink": "16819361347843631506"
  },
  "wright_s_heating_air_conditioning": {
    "name": "Wright's Heating & Air Conditioning",
    "phone": "+1 479-394-5894",
    "fullAddress": "1180 US-71 South, Mena, AR 71953",
    "street": "1180 US-71 South",
    "city": "Mena",
    "postalCode": 71953,
    "state": "Arkansas",
    "country": "United States of America",
    "latitude": 34.5726838,
    "longitude": -94.2434813,
    "timeZone": "America/Chicago",
    "rating": 57,
    "reviews": "https://search.google.com/local/reviews?placeid=ChIJV2PiCNIvy4cR--ofpIhNfAM&q=plumber,+71945,+Hatfield,+AR,+US&authuser=0&hl=en&gl=US",
    "reviewsLink": "",
    "workingHours": "Monday:8AM-5PM|Tuesday:8AM-5PM|Wednesday:8AM-5PM|Thursday:8AM-5PM|Friday:8AM-5PM|Saturday:Closed|Sunday:Closed",
    "locationLink": "251160928490351355"
  },
  "razorback_remodeling_handyman_services": {
    "name": "Razorback Remodeling & Handyman Services",
    "phone": "+1 479-216-5621",
    "fullAddress": "110 S Mullins St, Hatfield, AR 71945",
    "street": "110 S Mullins St",
    "city": "Hatfield",
    "postalCode": 71945,
    "state": "Arkansas",
    "country": "United States of America",
    "latitude": 34.4875781,
    "longitude": -94.380138,
    "timeZone": "America/Chicago",
    "rating": 10,
    "reviews": "https://search.google.com/local/reviews?placeid=ChIJM0gHHkwry4cR9FvUZTwX2u0&q=plumber,+71945,+Hatfield,+AR,+US&authuser=0&hl=en&gl=US",
    "reviewsLink": "",
    "workingHours": "Monday:9AM-5PM|Tuesday:9AM-5PM|Wednesday:9AM-5PM|Thursday:9AM-5PM|Friday:9AM-5PM|Saturday:9AM-5PM|Sunday:12-5PM",
    "locationLink": "17139036880085736436"
  },
  "sims_plumbing_air": {
    "name": "Sims plumbing & air",
    "phone": "+1 423-777-6155",
    "fullAddress": "",
    "street": "",
    "city": "",
    "postalCode": "",
    "state": "",
    "country": "US",
    "latitude": 35.0330499,
    "longitude": -85.2220409,
    "timeZone": "America/New_York",
    "rating": 27,
    "reviews": "https://search.google.com/local/reviews?placeid=ChIJy3S442VxYIgRXb4E0BOSSPQ&q=*&authuser=0&hl=en&gl=US",
    "reviewsLink": "",
    "workingHours": "",
    "locationLink": "17602479757369589341"
  },
  "delta_hardware_lumber_co": {
    "name": "Delta Hardware & Lumber Co",
    "phone": "+1 870-827-3831",
    "fullAddress": "23020 AR-44, Elaine, AR 72333",
    "street": "23020 AR-44",
    "city": "Elaine",
    "postalCode": 72333,
    "state": "Arkansas",
    "country": "United States of America",
    "latitude": 34.3073726,
    "longitude": -90.8520855,
    "timeZone": "America/Chicago",
    "rating": 17,
    "reviews": "https://search.google.com/local/reviews?placeid=ChIJMS6Z-WJHK4YRc-xf1Jo6CrE&q=plumber,+72333,+Elaine,+AR,+US&authuser=0&hl=en&gl=US",
    "reviewsLink": "",
    "workingHours": "Monday:7AM-5PM|Tuesday:7AM-5PM|Wednesday:7AM-5PM|Thursday:7AM-5PM|Friday:7AM-5PM|Saturday:7AM-3PM|Sunday:Closed",
    "locationLink": "12757073331142782067"
  },
  "armstrong_solutions": {
    "name": "Armstrong Solutions",
    "phone": "+1 901-697-8651",
    "fullAddress": "131 Sweetgum Ln, Atoka, TN 38004",
    "street": "131 Sweetgum Ln",
    "city": "Atoka",
    "postalCode": 38004,
    "state": "Tennessee",
    "country": "United States of America",
    "latitude": 35.409936,
    "longitude": -89.7629869,
    "timeZone": "America/Chicago",
    "rating": 31,
    "reviews": "https://search.google.com/local/reviews?placeid=ChIJleutCMBtf4gRH-H1QfpHu3M&q=*&authuser=0&hl=en&gl=US",
    "reviewsLink": "",
    "workingHours": "Monday:Open 24 hours|Tuesday:Open 24 hours|Wednesday:Open 24 hours|Thursday:Open 24 hours|Friday:Open 24 hours|Saturday:Open 24 hours|Sunday:Closed",
    "locationLink": "8339338275180634399"
  },
  "all_in_one_home_repair_remodeling": {
    "name": "All In One Home Repair & Remodeling",
    "phone": "+1 901-616-4380",
    "fullAddress": "1412 Tipton Rd, Munford, TN 38058",
    "street": "1412 Tipton Rd",
    "city": "Munford",
    "postalCode": 38058,
    "state": "Tennessee",
    "country": "United States of America",
    "latitude": 35.4290496,
    "longitude": -89.8203006999999,
    "timeZone": "America/Chicago",
    "rating": 5,
    "reviews": "https://search.google.com/local/reviews?placeid=ChIJi7TaQFFvf4gRoUZmP49HOmI&q=*&authuser=0&hl=en&gl=US",
    "reviewsLink": "",
    "workingHours": "Monday:Open 24 hours|Tuesday:Open 24 hours|Wednesday:Open 24 hours|Thursday:Open 24 hours|Friday:Open 24 hours|Saturday:Open 24 hours|Sunday:Open 24 hours",
    "locationLink": "7078048444935718561"
  },
  "dc_sewer_drain": {
    "name": "DC Sewer & Drain",
    "phone": "+1 662-330-4530",
    "fullAddress": "",
    "street": "",
    "city": "",
    "postalCode": "",
    "state": "",
    "country": "US",
    "latitude": 34.837244,
    "longitude": -90.0183215,
    "timeZone": "America/Chicago",
    "rating": 34,
    "reviews": "https://search.google.com/local/reviews?placeid=ChIJBSkEGz5n1YcR2Y4ZYldVFu0&q=plumber,+72341,+Haynes,+AR,+US&authuser=0&hl=en&gl=US",
    "reviewsLink": "",
    "workingHours": "",
    "locationLink": "17083936070272913113"
  },
  "thomas_plumbing": {
    "name": "Thomas Plumbing",
    "phone": "+1 903-729-2839",
    "fullAddress": "1800 E Murchison St, Palestine, TX 75801",
    "street": "1800 E Murchison St",
    "city": "Palestine",
    "postalCode": 75801,
    "state": "Texas",
    "country": "United States of America",
    "latitude": 31.7674731999999,
    "longitude": -95.6109791,
    "timeZone": "America/Chicago",
    "rating": 14,
    "reviews": "https://search.google.com/local/reviews?placeid=ChIJe1ne3S9kSIYR9A8vI-Ht63k&q=*&authuser=0&hl=en&gl=US",
    "reviewsLink": "",
    "workingHours": "Monday:8AM-4:30PM|Tuesday:8AM-4:30PM|Wednesday:8AM-4:30PM|Thursday:8AM-4:30PM|Friday:8AM-4:30PM|Saturday:Closed|Sunday:Closed",
    "locationLink": "8785377049329995764"
  },
  "plumb_crazy_plumbing_co": {
    "name": "Plumb Crazy Plumbing Co",
    "phone": "+1 870-735-2228",
    "fullAddress": "408 S Woods St, West Memphis, AR 72301",
    "street": "408 S Woods St",
    "city": "West Memphis",
    "postalCode": 72301,
    "state": "Arkansas",
    "country": "United States of America",
    "latitude": 35.1412575,
    "longitude": -90.1844548,
    "timeZone": "America/Chicago",
    "rating": 24,
    "reviews": "https://search.google.com/local/reviews?placeid=ChIJn3zmhuJ21YcR2ik8S8eHC-Y&q=plumber,+72376,+Proctor,+AR,+US&authuser=0&hl=en&gl=US",
    "reviewsLink": "",
    "workingHours": "Monday:8AM-5PM|Tuesday:8AM-5PM|Wednesday:8AM-5PM|Thursday:8AM-5PM|Friday:8AM-5PM|Saturday:8AM-5PM|Sunday:8AM-5PM",
    "locationLink": "16576492143497718234"
  },
  "robert_schiff_plumbing_heating": {
    "name": "Robert Schiff Plumbing & Heating",
    "phone": "+1 201-275-2003",
    "fullAddress": "",
    "street": "",
    "city": "",
    "postalCode": "",
    "state": "",
    "country": "US",
    "latitude": 41.0780414,
    "longitude": -74.176363,
    "timeZone": "America/New_York",
    "rating": 10,
    "reviews": "https://search.google.com/local/reviews?placeid=ChIJfye3CJ7nwokRFUHkFCG3Pq4&q=plumber,+72377,+Rivervale,+AR,+US&authuser=0&hl=en&gl=US",
    "reviewsLink": "",
    "workingHours": "Monday:8AM-6PM|Tuesday:8AM-6PM|Wednesday:8AM-6PM|Thursday:8AM-6PM|Friday:8AM-6PM|Saturday:Closed|Sunday:Closed",
    "locationLink": "12555674163867828501"
  },
  "red_beards_heat_air_refrigeration": {
    "name": "Red Beards Heat, Air & Refrigeration",
    "phone": "+1 870-318-7406",
    "fullAddress": "",
    "street": "",
    "city": "",
    "postalCode": "",
    "state": "",
    "country": "US",
    "latitude": 35.3760721,
    "longitude": -90.8875013,
    "timeZone": "America/Chicago",
    "rating": 25,
    "reviews": "https://search.google.com/local/reviews?placeid=ChIJq9hFSg4R8AsR_c-XF5iVsnY&q=plumber,+72394,+Widener,+AR,+US&authuser=0&hl=en&gl=US",
    "reviewsLink": "",
    "workingHours": "Monday:7AM-7PM|Tuesday:7AM-7PM|Wednesday:7AM-7PM|Thursday:7AM-7PM|Friday:7AM-7PM|Saturday:7AM-7PM|Sunday:7AM-7PM",
    "locationLink": "8553063122793385981"
  },
  "wright_now_plumbing": {
    "name": "Wright Now Plumbing",
    "phone": "+1 253-904-0064",
    "fullAddress": "12603 Military Rd E, Puyallup, WA 98374",
    "street": "12603 Military Rd E",
    "city": "Puyallup",
    "postalCode": 98374,
    "state": "Washington",
    "country": "United States of America",
    "latitude": 47.1431141,
    "longitude": -122.261439599999,
    "timeZone": "America/Los_Angeles",
    "rating": 43,
    "reviews": "https://search.google.com/local/reviews?placeid=ChIJPeloxEH9kFQRS4XzkMMMoKA&q=plumber,+72182,+Wright,+AR,+US&authuser=0&hl=en&gl=US",
    "reviewsLink": "",
    "workingHours": "Monday:Open 24 hours|Tuesday:Open 24 hours|Wednesday:Open 24 hours|Thursday:Open 24 hours|Friday:Open 24 hours|Saturday:Open 24 hours|Sunday:Open 24 hours",
    "locationLink": "11574265076432209227"
  },
  "rooftop_chimney_service_dryer_vent_cleaning": {
    "name": "Rooftop Chimney Service & Dryer Vent Cleaning",
    "phone": "+1 501-225-2404",
    "fullAddress": "11001 W Markham St, Little Rock, AR 72211",
    "street": "11001 W Markham St",
    "city": "Little Rock",
    "postalCode": 72211,
    "state": "Arkansas",
    "country": "United States of America",
    "latitude": 34.7527174999999,
    "longitude": -92.3970016,
    "timeZone": "America/Chicago",
    "rating": 7,
    "reviews": "https://search.google.com/local/reviews?placeid=ChIJeYNVqo-h0ocR-kbQH1yGiHY&q=plumber,+72212,+Little+Rock,+AR,+US&authuser=0&hl=en&gl=US",
    "reviewsLink": "",
    "workingHours": "",
    "locationLink": "8541224423537002234"
  },
  "hw_services_of_arkansas": {
    "name": "Hw services of Arkansas",
    "phone": "+1 501-909-7776",
    "fullAddress": "",
    "street": "",
    "city": "",
    "postalCode": "",
    "state": "",
    "country": "US",
    "latitude": 34.8180283999999,
    "longitude": -92.3167158,
    "timeZone": "America/Chicago",
    "rating": 12,
    "reviews": "https://search.google.com/local/reviews?placeid=ChIJQUnUTN5GEWQRsxQxFGAvyNE&q=plumber,+72214,+Little+Rock,+AR,+US&authuser=0&hl=en&gl=US",
    "reviewsLink": "",
    "workingHours": "Monday:Open 24 hours|Tuesday:Open 24 hours|Wednesday:Open 24 hours|Thursday:Open 24 hours|Friday:Open 24 hours|Saturday:Open 24 hours|Sunday:Closed",
    "locationLink": "15116384238971196595"
  },
  "j_s_plumbing_inc": {
    "name": "J & S Plumbing Inc.",
    "phone": "+1 501-707-5140",
    "fullAddress": "11415 Huron Ln #21212, Little Rock, AR 72211",
    "street": "11415 Huron Ln #21212",
    "city": "Little Rock",
    "postalCode": 72211,
    "state": "Arkansas",
    "country": "United States of America",
    "latitude": 34.7657495,
    "longitude": -92.4008609,
    "timeZone": "America/Chicago",
    "rating": 62,
    "reviews": "https://search.google.com/local/reviews?placeid=ChIJAzoBqjCh0ocRYOPv2aOKJok&q=plumber,+72222,+Little+Rock,+AR,+US&authuser=0&hl=en&gl=US",
    "reviewsLink": "",
    "workingHours": "",
    "locationLink": "9882738868651811680"
  },
  "west_memphis_drain_llc": {
    "name": "West Memphis Drain LLC",
    "phone": "+1 870-559-2623",
    "fullAddress": "",
    "street": "",
    "city": "",
    "postalCode": "",
    "state": "",
    "country": "US",
    "latitude": 35.1408736,
    "longitude": -90.1796928,
    "timeZone": "America/Chicago",
    "rating": 5,
    "reviews": "https://search.google.com/local/reviews?placeid=ChIJ8wzwFfATJSER5AOw_fSnS-E&q=plumber,+72301,+West+Memphis,+AR,+US&authuser=0&hl=en&gl=US",
    "reviewsLink": "",
    "workingHours": "Monday:8AM-5PM|Tuesday:8AM-5PM|Wednesday:8AM-5PM|Thursday:8AM-5PM|Friday:8AM-5PM|Saturday:Closed|Sunday:Closed",
    "locationLink": "16234253952457114596"
  },
  "french_s_plumbing_llc": {
    "name": "French's Plumbing LLC",
    "phone": "+1 765-376-7310",
    "fullAddress": "",
    "street": "",
    "city": "",
    "postalCode": "",
    "state": "",
    "country": "US",
    "latitude": 40.03994,
    "longitude": -86.8937905,
    "timeZone": "America/Indianapolis",
    "rating": 8,
    "reviews": "https://search.google.com/local/reviews?placeid=ChIJn9MHVXcpE4gREDVi5sSJy-E&q=plumber,+72327,+Crawfordsville,+AR,+US&authuser=0&hl=en&gl=US",
    "reviewsLink": "",
    "workingHours": "Monday:8AM-4PM|Tuesday:8AM-4PM|Wednesday:8AM-4PM|Thursday:8AM-4PM|Friday:8AM-4PM|Saturday:Closed|Sunday:Closed",
    "locationLink": "16270249557577839888"
  },
  "top_hat_plumbing": {
    "name": "Top Hat Plumbing",
    "phone": "+1 417-239-5874",
    "fullAddress": "15428 Business 13, Reeds Spring, MO 65737",
    "street": "15428 Business 13",
    "city": "Reeds Spring",
    "postalCode": 65737,
    "state": "Missouri",
    "country": "United States of America",
    "latitude": 36.670792,
    "longitude": -93.402084,
    "timeZone": "America/Chicago",
    "rating": 78,
    "reviews": "https://search.google.com/local/reviews?placeid=ChIJGTYQi0oZz4cRQ6bBUupY50U&q=plumber,+72662,+Omaha,+AR,+US&authuser=0&hl=en&gl=US",
    "reviewsLink": "",
    "workingHours": "Monday:Open 24 hours|Tuesday:Open 24 hours|Wednesday:Open 24 hours|Thursday:Open 24 hours|Friday:Open 24 hours|Saturday:Open 24 hours|Sunday:Open 24 hours",
    "locationLink": "5037092471671203395"
  },
  "tate_plumbing_llc": {
    "name": "Tate Plumbing LLC",
    "phone": "+1 417-598-1820",
    "fullAddress": "",
    "street": "",
    "city": "",
    "postalCode": "",
    "state": "",
    "country": "US",
    "latitude": 36.8594343,
    "longitude": -93.3351874999999,
    "timeZone": "America/Chicago",
    "rating": 6,
    "reviews": "https://search.google.com/local/reviews?placeid=ChIJP1UpnzWd1AER96hH8Iy2EhM&q=plumber,+72662,+Omaha,+AR,+US&authuser=0&hl=en&gl=US",
    "reviewsLink": "",
    "workingHours": "Monday:Open 24 hours|Tuesday:Open 24 hours|Wednesday:Open 24 hours|Thursday:Open 24 hours|Friday:Open 24 hours|Saturday:Open 24 hours|Sunday:Open 24 hours",
    "locationLink": "1374361552744327415"
  },
  "plumbing_solutions_inc": {
    "name": "Plumbing Solutions Inc",
    "phone": "+1 402-980-0200",
    "fullAddress": "",
    "street": "",
    "city": "",
    "postalCode": "",
    "state": "",
    "country": "US",
    "latitude": 41.2363409999999,
    "longitude": -96.1298949,
    "timeZone": "America/Chicago",
    "rating": 16,
    "reviews": "https://search.google.com/local/reviews?placeid=ChIJ0wQwGcuMk4cR5cJq3Jd07JY&q=plumber,+72662,+Omaha,+AR,+US&authuser=0&hl=en&gl=US",
    "reviewsLink": "",
    "workingHours": "Monday:Open 24 hours|Tuesday:Open 24 hours|Wednesday:Open 24 hours|Thursday:Open 24 hours|Friday:Open 24 hours|Saturday:Open 24 hours|Sunday:Open 24 hours",
    "locationLink": "10875195395779773157"
  },
  "dygert_designs_plumbing_co": {
    "name": "Dygert Designs Plumbing Co.",
    "phone": "+1 417-712-6678",
    "fullAddress": "624 Eiserman Ave, Branson, MO 65616",
    "street": "624 Eiserman Ave",
    "city": "Branson",
    "postalCode": 65616,
    "state": "Missouri",
    "country": "United States of America",
    "latitude": 36.6541784,
    "longitude": -93.2187562,
    "timeZone": "America/Chicago",
    "rating": 45,
    "reviews": "https://search.google.com/local/reviews?placeid=ChIJW_Afc5oFz4cRyekUqLm3N0M&q=plumber,+72662,+Omaha,+AR,+US&authuser=0&hl=en&gl=US",
    "reviewsLink": "",
    "workingHours": "Monday:7AM-7PM|Tuesday:7AM-7PM|Wednesday:7AM-7PM|Thursday:7AM-7PM|Friday:7AM-7PM|Saturday:7AM-7PM|Sunday:7AM-7PM",
    "locationLink": "4843541932277033417"
  },
  "all_purpose_plumbing_llc": {
    "name": "All Purpose Plumbing LLC",
    "phone": "+1 417-235-5511",
    "fullAddress": "28804 Norway Rd, Stark City, MO 64866",
    "street": "28804 Norway Rd",
    "city": "Stark City",
    "postalCode": 64866,
    "state": "Missouri",
    "country": "United States of America",
    "latitude": 36.8464303999999,
    "longitude": -94.1222133999999,
    "timeZone": "America/Chicago",
    "rating": 10,
    "reviews": "https://search.google.com/local/reviews?placeid=ChIJJ71tE0m4yIcRTNBXgI0aCBA&q=*&authuser=0&hl=en&gl=US",
    "reviewsLink": "",
    "workingHours": "Monday:Open 24 hours|Tuesday:Open 24 hours|Wednesday:Open 24 hours|Thursday:Open 24 hours|Friday:Open 24 hours|Saturday:Open 24 hours|Sunday:Open 24 hours",
    "locationLink": "1155202499466481740"
  },
  "b_l_plumbing_and_electrical_supply": {
    "name": "B & L Plumbing and Electrical Supply",
    "phone": "+1 417-271-0345",
    "fullAddress": "34312 State Hwy 86, Eagle Rock, MO 65641",
    "street": "34312 State Hwy 86",
    "city": "Eagle Rock",
    "postalCode": 65641,
    "state": "Missouri",
    "country": "United States of America",
    "latitude": 36.5075305,
    "longitude": -93.6797582,
    "timeZone": "America/Chicago",
    "rating": 8,
    "reviews": "https://search.google.com/local/reviews?placeid=ChIJj2WyoEvUzocRMuWzTr_r9zA&q=*&authuser=0&hl=en&gl=US",
    "reviewsLink": "",
    "workingHours": "Monday:8AM-4PM|Tuesday:8AM-4PM|Wednesday:8AM-4PM|Thursday:8AM-4PM|Friday:8AM-4PM|Saturday:Closed|Sunday:Closed",
    "locationLink": "3528548039959766322"
  },
  "hdi_plumbing_contractors": {
    "name": "HDI Plumbing Contractors",
    "phone": "+1 479-466-6920",
    "fullAddress": "2169 Leeper Dr, Fayetteville, AR 72701",
    "street": "2169 Leeper Dr",
    "city": "Fayetteville",
    "postalCode": 72701,
    "state": "Arkansas",
    "country": "United States of America",
    "latitude": 36.0401563,
    "longitude": -94.1401693999999,
    "timeZone": "America/Chicago",
    "rating": 5,
    "reviews": "https://search.google.com/local/reviews?placeid=ChIJqcDb0LtuyYcRxzM9t8y_CMI&q=plumber,+72701,+Fayetteville,+AR,+US&authuser=0&hl=en&gl=US",
    "reviewsLink": "",
    "workingHours": "Monday:7AM-5PM|Tuesday:7AM-5PM|Wednesday:7AM-5PM|Thursday:7AM-5PM|Friday:7AM-5PM|Saturday:Closed|Sunday:Closed",
    "locationLink": "13981635929140179911"
  },
  "drain_king": {
    "name": "Drain King",
    "phone": "",
    "fullAddress": "2200 N Hummingbird Ln, Fayetteville, AR 72703",
    "street": "2200 N Hummingbird Ln",
    "city": "Fayetteville",
    "postalCode": 72703,
    "state": "Arkansas",
    "country": "United States of America",
    "latitude": 36.0916141,
    "longitude": -94.14164,
    "timeZone": "America/Chicago",
    "rating": 11,
    "reviews": "https://search.google.com/local/reviews?placeid=ChIJq6p2g09pyYcR4uG8ZBX-pKo&q=plumber,+72701,+Fayetteville,+AR,+US&authuser=0&hl=en&gl=US",
    "reviewsLink": "",
    "workingHours": "Monday:Open 24 hours|Tuesday:Open 24 hours|Wednesday:Open 24 hours|Thursday:Open 24 hours|Friday:Open 24 hours|Saturday:Open 24 hours|Sunday:Open 24 hours",
    "locationLink": "12296232250466165218"
  },
  "mora_services": {
    "name": "Mora services",
    "phone": "+1 479-579-1341",
    "fullAddress": "",
    "street": "",
    "city": "",
    "postalCode": "",
    "state": "",
    "country": "US",
    "latitude": 36.2584930999999,
    "longitude": -94.0319629999999,
    "timeZone": "America/Chicago",
    "rating": 8,
    "reviews": "https://search.google.com/local/reviews?placeid=ChIJZS0e-Hxp24ARlZ9t2JwounE&q=plumber,+72701,+Fayetteville,+AR,+US&authuser=0&hl=en&gl=US",
    "reviewsLink": "",
    "workingHours": "Monday:Open 24 hours|Tuesday:Open 24 hours|Wednesday:Open 24 hours|Thursday:Open 24 hours|Friday:Open 24 hours|Saturday:8:30AM-5PM|Sunday:Closed",
    "locationLink": "8194907126065110933"
  },
  "rich_s_rooter_plumbing": {
    "name": "Rich's Rooter & Plumbing",
    "phone": "+1 479-856-1557",
    "fullAddress": "",
    "street": "",
    "city": "",
    "postalCode": "",
    "state": "",
    "country": "US",
    "latitude": 36.2134928,
    "longitude": -94.1764412,
    "timeZone": "America/Chicago",
    "rating": 10,
    "reviews": "https://search.google.com/local/reviews?placeid=ChIJaeuj2BxtyYcRGa4mbRqLBYo&q=plumber,+72701,+Fayetteville,+AR,+US&authuser=0&hl=en&gl=US",
    "reviewsLink": "",
    "workingHours": "Monday:8AM-7PM|Tuesday:8AM-7PM|Wednesday:8AM-7PM|Thursday:8AM-7PM|Friday:8AM-7PM|Saturday:8AM-2PM|Sunday:Closed",
    "locationLink": "9945508297734270489"
  },
  "jc_plumbing": {
    "name": "JC Plumbing",
    "phone": "+1 479-313-3595",
    "fullAddress": "1693 W County Line Rd, Springdale, AR 72762",
    "street": "1693 W County Line Rd",
    "city": "Springdale",
    "postalCode": 72762,
    "state": "Arkansas",
    "country": "United States of America",
    "latitude": 36.2118526,
    "longitude": -94.2053785999999,
    "timeZone": "America/Chicago",
    "rating": 15,
    "reviews": "https://search.google.com/local/reviews?placeid=ChIJtZuTzekSyYcRCimNYowXt2o&q=plumber,+72713,+Bentonville,+AR,+US&authuser=0&hl=en&gl=US",
    "reviewsLink": "",
    "workingHours": "Monday:Open 24 hours|Tuesday:Open 24 hours|Wednesday:Open 24 hours|Thursday:Open 24 hours|Friday:Open 24 hours|Saturday:Open 24 hours|Sunday:Open 24 hours",
    "locationLink": "7689640780474689802"
  },
  "paramount_plumbing_inc": {
    "name": "Paramount Plumbing Inc.",
    "phone": "+1 479-790-8427",
    "fullAddress": "14840 Old Hwy 68, Springdale, AR 72762",
    "street": "14840 Old Hwy 68",
    "city": "Springdale",
    "postalCode": 72762,
    "state": "Arkansas",
    "country": "United States of America",
    "latitude": 36.1872948,
    "longitude": -94.3175631,
    "timeZone": "America/Chicago",
    "rating": 25,
    "reviews": "https://search.google.com/local/reviews?placeid=ChIJQdlsGVULyYcRNsqDrEWwlPI&q=plumber,+72713,+Bentonville,+AR,+US&authuser=0&hl=en&gl=US",
    "reviewsLink": "",
    "workingHours": "Monday:7AM-4PM|Tuesday:7AM-4PM|Wednesday:7AM-4PM|Thursday:7AM-4PM|Friday:7AM-4PM|Saturday:Closed|Sunday:Closed",
    "locationLink": "17479789867025287734"
  },
  "brads_plumbing": {
    "name": "Brads Plumbing",
    "phone": "+1 479-927-3686",
    "fullAddress": "520 S Lincoln St, Lowell, AR 72745",
    "street": "520 S Lincoln St",
    "city": "Lowell",
    "postalCode": 72745,
    "state": "Arkansas",
    "country": "United States of America",
    "latitude": 36.2453497,
    "longitude": -94.1329406,
    "timeZone": "America/Chicago",
    "rating": 11,
    "reviews": "https://search.google.com/local/reviews?placeid=ChIJQUNFzmcUyYcRL5NJjtMuQQU&q=plumber,+72713,+Bentonville,+AR,+US&authuser=0&hl=en&gl=US",
    "reviewsLink": "",
    "workingHours": "Monday:9AM-5PM|Tuesday:9AM-5PM|Wednesday:9AM-5PM|Thursday:9AM-5PM|Friday:9AM-5PM|Saturday:9AM-5PM|Sunday:9AM-5PM",
    "locationLink": "378635329835995951"
  },
  "rth_handyman_services": {
    "name": "RTH Handyman Services",
    "phone": "+1 479-685-4858",
    "fullAddress": "",
    "street": "",
    "city": "",
    "postalCode": "",
    "state": "",
    "country": "US",
    "latitude": 36.3812995,
    "longitude": -94.2281584,
    "timeZone": "America/Chicago",
    "rating": 17,
    "reviews": "https://search.google.com/local/reviews?placeid=ChIJP4wImcYQyYcRZIH_qsh9pMg&q=plumber,+72713,+Bentonville,+AR,+US&authuser=0&hl=en&gl=US",
    "reviewsLink": "",
    "workingHours": "Monday:8AM-6PM|Tuesday:8AM-6PM|Wednesday:8AM-6PM|Thursday:8AM-6PM|Friday:8AM-6PM|Saturday:8AM-6PM|Sunday:Closed",
    "locationLink": "14457819004581937508"
  },
  "rocky_the_plumber": {
    "name": "Rocky the Plumber",
    "phone": "+1 479-409-5733",
    "fullAddress": "301 Wayland Ave, Springdale, AR 72764",
    "street": "301 Wayland Ave",
    "city": "Springdale",
    "postalCode": 72764,
    "state": "Arkansas",
    "country": "United States of America",
    "latitude": 36.1765205999999,
    "longitude": -94.1331141,
    "timeZone": "America/Chicago",
    "rating": 5,
    "reviews": "https://search.google.com/local/reviews?placeid=ChIJNeoNdZtryYcR-sb2NhJxu8c&q=plumber,+72717,+Canehill,+AR,+US&authuser=0&hl=en&gl=US",
    "reviewsLink": "",
    "workingHours": "Monday:8AM-5PM|Tuesday:8AM-5PM|Wednesday:8AM-5PM|Thursday:8AM-5PM|Friday:8AM-5PM|Saturday:8AM-5PM|Sunday:8AM-5PM",
    "locationLink": "14392221357238044410"
  },
  "c_b_plumbing": {
    "name": "C & B Plumbing",
    "phone": "+1 302-943-7292",
    "fullAddress": "",
    "street": "",
    "city": "",
    "postalCode": "",
    "state": "",
    "country": "US",
    "latitude": 39.1083764,
    "longitude": -75.4489474,
    "timeZone": "America/New_York",
    "rating": 41,
    "reviews": "https://search.google.com/local/reviews?placeid=ChIJs9FCFR2duIkRoPoopajKpK0&q=plumber,+72719,+Centerton,+AR,+US&authuser=0&hl=en&gl=US",
    "reviewsLink": "",
    "workingHours": "Monday:8AM-4PM|Tuesday:8AM-4PM|Wednesday:8AM-4PM|Thursday:8AM-4PM|Friday:8AM-4PM|Saturday:Closed|Sunday:Closed",
    "locationLink": "12512348490416323232"
  },
  "aaa_one_call_pump_service": {
    "name": "AAA One Call Pump service",
    "phone": "+1 417-592-4987",
    "fullAddress": "",
    "street": "",
    "city": "",
    "postalCode": "",
    "state": "",
    "country": "US",
    "latitude": 36.7610954999999,
    "longitude": -94.1516575,
    "timeZone": "America/Chicago",
    "rating": 11,
    "reviews": "https://search.google.com/local/reviews?placeid=ChIJ4zyW2VfuyIcRjDYDqdrTjBc&q=*&authuser=0&hl=en&gl=US",
    "reviewsLink": "",
    "workingHours": "Monday:Open 24 hours|Tuesday:Open 24 hours|Wednesday:Open 24 hours|Thursday:Open 24 hours|Friday:Open 24 hours|Saturday:Open 24 hours|Sunday:Open 24 hours",
    "locationLink": "1696964095703725708"
  },
  "crowe_construction": {
    "name": "Crowe Construction",
    "phone": "+1 479-381-8779",
    "fullAddress": "415 E Locust St, Rogers, AR 72756",
    "street": "415 E Locust St",
    "city": "Rogers",
    "postalCode": 72756,
    "state": "Arkansas",
    "country": "United States of America",
    "latitude": 36.338276,
    "longitude": -94.1108994,
    "timeZone": "America/Chicago",
    "rating": 6,
    "reviews": "https://search.google.com/local/reviews?placeid=ChIJLfeziAw_yYcRlQ4dvNIm7Ec&q=plumber,+72756,+Rogers,+AR,+US&authuser=0&hl=en&gl=US",
    "reviewsLink": "",
    "workingHours": "",
    "locationLink": "5182559957737606805"
  },
  "nwa_handyman_gracida": {
    "name": "NWA Handyman Gracida",
    "phone": "+1 479-696-1509",
    "fullAddress": "",
    "street": "",
    "city": "",
    "postalCode": "",
    "state": "",
    "country": "US",
    "latitude": 36.2134928,
    "longitude": -94.1764412,
    "timeZone": "America/Chicago",
    "rating": 6,
    "reviews": "https://search.google.com/local/reviews?placeid=ChIJvW0LD0BryYcRMbJSnrQUbN4&q=plumber,+72765,+Springdale,+AR,+US&authuser=0&hl=en&gl=US",
    "reviewsLink": "",
    "workingHours": "Monday:Open 24 hours|Tuesday:Open 24 hours|Wednesday:Open 24 hours|Thursday:Open 24 hours|Friday:Open 24 hours|Saturday:Open 24 hours|Sunday:Open 24 hours",
    "locationLink": "16027207939887641137"
  },
  "mountain_states_contracting_llc": {
    "name": "Mountain States Contracting LLC",
    "phone": "+1 970-631-3431",
    "fullAddress": "",
    "street": "",
    "city": "",
    "postalCode": "",
    "state": "",
    "country": "US",
    "latitude": 36.5339586,
    "longitude": -93.4507466,
    "timeZone": "America/Chicago",
    "rating": 14,
    "reviews": "https://search.google.com/local/reviews?placeid=ChIJyaK_4eqWdosRLMvJ-dftTC0&q=*&authuser=0&hl=en&gl=US",
    "reviewsLink": "",
    "workingHours": "Monday:7AM-5PM|Tuesday:7AM-5PM|Wednesday:7AM-5PM|Thursday:7AM-5PM|Friday:7AM-5PM|Saturday:7AM-12PM|Sunday:Closed",
    "locationLink": "3264245341801270060"
  },
  "bryan_baird_s_plumbing": {
    "name": "Bryan Baird's Plumbing",
    "phone": "+1 479-747-6492",
    "fullAddress": "305 E Gum St #8961, Russellville, AR 72802",
    "street": "305 E Gum St #8961",
    "city": "Russellville",
    "postalCode": 72802,
    "state": "Arkansas",
    "country": "United States of America",
    "latitude": 35.3116932,
    "longitude": -93.1343564,
    "timeZone": "America/Chicago",
    "rating": 49,
    "reviews": "https://search.google.com/local/reviews?placeid=ChIJC6GpNPlSzIcRHSxz7el2OaA&q=plumber,+72801,+Russellville,+AR,+US&authuser=0&hl=en&gl=US",
    "reviewsLink": "",
    "workingHours": "Monday:7AM-5PM|Tuesday:7AM-5PM|Wednesday:7AM-5PM|Thursday:7AM-5PM|Friday:7AM-5PM|Saturday:Closed|Sunday:Closed",
    "locationLink": "11545389866824182813"
  },
  "aaa_home_specialists": {
    "name": "AAA Home Specialists",
    "phone": "+1 479-223-7976",
    "fullAddress": "",
    "street": "",
    "city": "",
    "postalCode": "",
    "state": "",
    "country": "US",
    "latitude": 34.9958540999999,
    "longitude": -102.697527999999,
    "timeZone": "America/Chicago",
    "rating": 18,
    "reviews": "https://search.google.com/local/reviews?placeid=ChIJ5wxGj1hTzIcRpm1PEtF2yy8&q=plumber,+72801,+Russellville,+AR,+US&authuser=0&hl=en&gl=US",
    "reviewsLink": "",
    "workingHours": "Monday:8AM-5PM|Tuesday:8AM-5PM|Wednesday:8AM-5PM|Thursday:8AM-5PM|Friday:8AM-5PM|Saturday:9AM-1PM|Sunday:Closed",
    "locationLink": "3443976980382313894"
  },
  "jim_s_heating_ac": {
    "name": "Jim's Heating & AC",
    "phone": "+1 479-213-0786",
    "fullAddress": "1043 W College St, Altus, AR 72821",
    "street": "1043 W College St",
    "city": "Altus",
    "postalCode": 72821,
    "state": "Arkansas",
    "country": "United States of America",
    "latitude": 35.4363923,
    "longitude": -93.7735701,
    "timeZone": "America/Chicago",
    "rating": 20,
    "reviews": "https://search.google.com/local/reviews?placeid=ChIJz_IWez6Ky4cRaBj9e9Busog&q=plumber,+72820,+Alix,+AR,+US&authuser=0&hl=en&gl=US",
    "reviewsLink": "",
    "workingHours": "",
    "locationLink": "9850057176725133416"
  },
  "batjac_plumbing_llc": {
    "name": "BATJAC Plumbing, LLC",
    "phone": "+1 479-461-7538",
    "fullAddress": "",
    "street": "",
    "city": "",
    "postalCode": "",
    "state": "",
    "country": "US",
    "latitude": 35.3477315,
    "longitude": -94.1905275,
    "timeZone": "America/Chicago",
    "rating": 33,
    "reviews": "https://search.google.com/local/reviews?placeid=ChIJPSyqQGYGbKoRG7_jbx26N3o&q=plumber,+72820,+Alix,+AR,+US&authuser=0&hl=en&gl=US",
    "reviewsLink": "",
    "workingHours": "Monday:7:30AM-7PM|Tuesday:7:30AM-7PM|Wednesday:7:30AM-7PM|Thursday:7:30AM-7PM|Friday:7:30AM-7PM|Saturday:8AM-3PM|Sunday:Closed",
    "locationLink": "8806712231940308763"
  },
  "westbrook_heating_and_cooling_llc": {
    "name": "Westbrook Heating And Cooling LLC",
    "phone": "+1 479-352-1894",
    "fullAddress": "",
    "street": "",
    "city": "",
    "postalCode": "",
    "state": "",
    "country": "US",
    "latitude": 34.7520156,
    "longitude": -92.1294279999999,
    "timeZone": "America/Chicago",
    "rating": 5,
    "reviews": "https://search.google.com/local/reviews?placeid=ChIJob7fFS8QhUMR0S_h2hHsyKc&q=plumber,+72820,+Alix,+AR,+US&authuser=0&hl=en&gl=US",
    "reviewsLink": "",
    "workingHours": "Monday:Open 24 hours|Tuesday:Open 24 hours|Wednesday:Open 24 hours|Thursday:Open 24 hours|Friday:Open 24 hours|Saturday:Open 24 hours|Sunday:Open 24 hours",
    "locationLink": "12090172761106886609"
  },
  "magazine_mountain": {
    "name": "Magazine Mountain",
    "phone": "",
    "fullAddress": "Arkansas 72842",
    "street": "",
    "city": "US",
    "postalCode": 72842,
    "state": "Arkansas",
    "country": "United States of America",
    "latitude": 35.1673119999999,
    "longitude": -93.6449152,
    "timeZone": "America/Chicago",
    "rating": 251,
    "reviews": "https://search.google.com/local/reviews?placeid=ChIJSbreo_N9zIcRnv6gf-AQBaA&q=plumber,+72826,+Blue+Mountain,+AR,+US&authuser=0&hl=en&gl=US",
    "reviewsLink": "",
    "workingHours": "",
    "locationLink": "11530640977351999134"
  },
  "hector_s_construction_remodeling_llc": {
    "name": "Hector?s Construction & Remodeling LLC.",
    "phone": "+1 870-210-9396",
    "fullAddress": "710 E Beech St, Gurdon, AR 71743",
    "street": "710 E Beech St",
    "city": "Gurdon",
    "postalCode": 71743,
    "state": "Arkansas",
    "country": "United States of America",
    "latitude": 33.920637,
    "longitude": -93.146056,
    "timeZone": "America/Chicago",
    "rating": 26,
    "reviews": "https://search.google.com/local/reviews?placeid=ChIJ93kFXXADM4YRngHmBesCES4&q=plumber,+72843,+Hector,+AR,+US&authuser=0&hl=en&gl=US",
    "reviewsLink": "",
    "workingHours": "Monday:7AM-5PM|Tuesday:7AM-5PM|Wednesday:7AM-5PM|Thursday:7AM-5PM|Friday:7AM-5PM|Saturday:8AM-12PM|Sunday:Closed",
    "locationLink": "3319437608788296094"
  },
  "blasingame_plumbing_and_drain_cleaning": {
    "name": "Blasingame Plumbing and Drain Cleaning",
    "phone": "+1 479-522-1602",
    "fullAddress": "7041 Old 88 Rd, Rudy, AR 72952",
    "street": "7041 Old 88 Rd",
    "city": "Rudy",
    "postalCode": 72952,
    "state": "Arkansas",
    "country": "United States of America",
    "latitude": 35.5360145,
    "longitude": -94.2797715999999,
    "timeZone": "America/Chicago",
    "rating": 19,
    "reviews": "https://search.google.com/local/reviews?placeid=ChIJjTKrGVaWBSERdaDHR-YtR6o&q=plumber,+72851,+New+Blaine,+AR,+US&authuser=0&hl=en&gl=US",
    "reviewsLink": "",
    "workingHours": "",
    "locationLink": "12269826176864198773"
  },
  "master_made_septic_tank": {
    "name": "Master Made Septic Tank",
    "phone": "+1 479-963-3752",
    "fullAddress": "169 N Carbon City Rd, Paris, AR 72855",
    "street": "169 N Carbon City Rd",
    "city": "Paris",
    "postalCode": 72855,
    "state": "Arkansas",
    "country": "United States of America",
    "latitude": 35.300016,
    "longitude": -93.792367,
    "timeZone": "America/Chicago",
    "rating": 7,
    "reviews": "https://search.google.com/local/reviews?placeid=ChIJIfBPt0-Gy4cRFuiJF3MaUX0&q=*&authuser=0&hl=en&gl=US",
    "reviewsLink": "",
    "workingHours": "",
    "locationLink": "9030027809473030166"
  },
  "ellis_plumbing_and_drain": {
    "name": "Ellis Plumbing and Drain",
    "phone": "+1 918-647-6445",
    "fullAddress": "",
    "street": "",
    "city": "",
    "postalCode": "",
    "state": "",
    "country": "US",
    "latitude": 34.977467,
    "longitude": -94.6097183999999,
    "timeZone": "America/Chicago",
    "rating": 57,
    "reviews": "https://search.google.com/local/reviews?placeid=ChIJV5BTg433yocRUc_PviZNXvA&q=plumber,+72937,+Hackett,+AR,+US&authuser=0&hl=en&gl=US",
    "reviewsLink": "",
    "workingHours": "Monday:8AM-5PM|Tuesday:8AM-5PM|Wednesday:8AM-5PM|Thursday:8AM-5PM|Friday:8AM-5PM|Saturday:9AM-1PM|Sunday:Closed",
    "locationLink": "17320366045718892369"
  },
  "baker_s_plumbing_heating": {
    "name": "Baker's Plumbing Heating",
    "phone": "+1 918-649-0292",
    "fullAddress": "1701 N Broadway St, Poteau, OK 74953",
    "street": "1701 N Broadway St",
    "city": "Poteau",
    "postalCode": 74953,
    "state": "Oklahoma",
    "country": "United States of America",
    "latitude": 35.0657506,
    "longitude": -94.6243349,
    "timeZone": "America/Chicago",
    "rating": 15,
    "reviews": "https://search.google.com/local/reviews?placeid=ChIJCQjhiGX2yocRtCnS5asLCE0&q=plumber,+72944,+Mansfield,+AR,+US&authuser=0&hl=en&gl=US",
    "reviewsLink": "",
    "workingHours": "Monday:8AM-5PM|Tuesday:8AM-5PM|Wednesday:8AM-5PM|Thursday:8AM-5PM|Friday:8AM-5PM|Saturday:Closed|Sunday:Closed",
    "locationLink": "5550699373657205172"
  },
  "middlebrooks_heat_air_refrigeration": {
    "name": "Middlebrooks Heat, Air & Refrigeration",
    "phone": "+1 479-518-1304",
    "fullAddress": "394 Military Rd, Ratcliff, AR 72951",
    "street": "394 Military Rd",
    "city": "Ratcliff",
    "postalCode": 72951,
    "state": "Arkansas",
    "country": "United States of America",
    "latitude": 35.3052006,
    "longitude": -93.8792706999999,
    "timeZone": "America/Chicago",
    "rating": 27,
    "reviews": "https://search.google.com/local/reviews?placeid=ChIJFaXmFROFy4cRbamqr_safpk&q=plumber,+72944,+Mansfield,+AR,+US&authuser=0&hl=en&gl=US",
    "reviewsLink": "",
    "workingHours": "Monday:8AM-5PM|Tuesday:8AM-5PM|Wednesday:8AM-5PM|Thursday:8AM-5PM|Friday:8AM-5PM|Saturday:9AM-1PM|Sunday:Closed",
    "locationLink": "11060307403154827629"
  },
  "budget_heat_and_air": {
    "name": "BUDGET HEAT AND AIR",
    "phone": "+1 501-388-9488",
    "fullAddress": "104 Searcy, Pangburn, AR 72121",
    "street": "104 Searcy",
    "city": "Pangburn",
    "postalCode": 72121,
    "state": "Arkansas",
    "country": "United States of America",
    "latitude": 35.4219942,
    "longitude": -91.8355965,
    "timeZone": "America/Chicago",
    "rating": 27,
    "reviews": "https://search.google.com/local/reviews?placeid=ChIJo9HuUpVN0ocRZUzLlafA9iY&q=plumber,+72121,+Pangburn,+AR,+US&authuser=0&hl=en&gl=US",
    "reviewsLink": "",
    "workingHours": "Monday:8AM-5PM|Tuesday:8AM-5PM|Wednesday:8AM-5PM|Thursday:8AM-5PM|Friday:8AM-5PM|Saturday:Closed|Sunday:Closed",
    "locationLink": "2807643243717282917"
  },
  "sandy_s_cuttin_corral": {
    "name": "Sandy's Cuttin Corral",
    "phone": "+1 501-728-3018",
    "fullAddress": "605 Main St, Pangburn, AR 72121",
    "street": "605 Main St",
    "city": "Pangburn",
    "postalCode": 72121,
    "state": "Arkansas",
    "country": "United States of America",
    "latitude": 35.4251821,
    "longitude": -91.8404561,
    "timeZone": "America/Chicago",
    "rating": 6,
    "reviews": "https://search.google.com/local/reviews?placeid=ChIJ0ZV2C9NM0ocRXfecR1glwLQ&q=plumber,+72121,+Pangburn,+AR,+US&authuser=0&hl=en&gl=US",
    "reviewsLink": "",
    "workingHours": "",
    "locationLink": "13024451183444293469"
  },
  "r_r_handyman_services": {
    "name": "R&R HandyMan Services",
    "phone": "+1 501-290-3575",
    "fullAddress": "",
    "street": "",
    "city": "",
    "postalCode": "",
    "state": "",
    "country": "US",
    "latitude": 35.2774746,
    "longitude": -91.7325365999999,
    "timeZone": "America/Chicago",
    "rating": 8,
    "reviews": "https://search.google.com/local/reviews?placeid=ChIJbXQs7kp4eCERMEYEb0GLjb0&q=*&authuser=0&hl=en&gl=US",
    "reviewsLink": "",
    "workingHours": "Monday:8AM-4:30PM|Tuesday:8AM-4:30PM|Wednesday:8AM-4:30PM|Thursday:8AM-4:30PM|Friday:8AM-4:30PM|Saturday:9AM-5PM|Sunday:Closed",
    "locationLink": "13658726358036268592"
  },
  "diamond_s_farm_ranch": {
    "name": "Diamond S Farm & Ranch",
    "phone": "+1 501-556-5606",
    "fullAddress": "436 AR-5, Rose Bud, AR 72137",
    "street": "436 AR-5",
    "city": "Rose Bud",
    "postalCode": 72137,
    "state": "Arkansas",
    "country": "United States of America",
    "latitude": 35.3330702999999,
    "longitude": -92.0807373999999,
    "timeZone": "America/Chicago",
    "rating": 22,
    "reviews": "https://search.google.com/local/reviews?placeid=ChIJJXGPycFd0ocR3_sMuoJVzvg&q=plumber,+72137,+Rose+Bud,+AR,+US&authuser=0&hl=en&gl=US",
    "reviewsLink": "",
    "workingHours": "Monday:7AM-5PM|Tuesday:7AM-5PM|Wednesday:7AM-5PM|Thursday:7AM-5PM|Friday:7AM-5PM|Saturday:7AM-5PM|Sunday:Closed",
    "locationLink": "17928361186564045791"
  },
  "steele_plumbing_llc": {
    "name": "Steele Plumbing LLC",
    "phone": "+1 662-322-4594",
    "fullAddress": "510 Rd 1460, Tupelo, MS 38804",
    "street": "510 Rd 1460",
    "city": "Tupelo",
    "postalCode": 38804,
    "state": "MS",
    "country": "United States of America",
    "latitude": 34.2821794,
    "longitude": -88.6278062,
    "timeZone": "America/Chicago",
    "rating": 19,
    "reviews": "https://search.google.com/local/reviews?placeid=ChIJW9aIInlFh4gRMa5cFLdWbYY&q=plumber,+72169,+Tupelo,+AR,+US&authuser=0&hl=en&gl=US",
    "reviewsLink": "",
    "workingHours": "Monday:8AM-5PM|Tuesday:8AM-5PM|Wednesday:8AM-5PM|Thursday:8AM-5PM|Friday:8AM-5PM|Saturday:Closed|Sunday:Closed",
    "locationLink": "9686493717864427057"
  },
  "southeast_plumbing_solutions": {
    "name": "Southeast Plumbing Solutions",
    "phone": "+1 662-350-0775",
    "fullAddress": "206 3rd Ave S, Amory, MS 38821",
    "street": "206 3rd Ave S",
    "city": "Amory",
    "postalCode": 38821,
    "state": "Mississippi",
    "country": "United States of America",
    "latitude": 33.9832813999999,
    "longitude": -88.4866231,
    "timeZone": "America/Chicago",
    "rating": 39,
    "reviews": "https://search.google.com/local/reviews?placeid=ChIJW3s34QQ5h4gRiGl_-wBx9Uw&q=plumber,+72169,+Tupelo,+AR,+US&authuser=0&hl=en&gl=US",
    "reviewsLink": "",
    "workingHours": "Monday:8AM-5PM|Tuesday:8AM-5PM|Wednesday:8AM-5PM|Thursday:8AM-5PM|Friday:8AM-5PM|Saturday:Closed|Sunday:Closed",
    "locationLink": "5545462765210003848"
  }
}